entity_type,name,school_type,address,latitude,longitude,ops_team,store_region,campus_kind,contact_office,contact_name,contact_phone,contact_email
store,수원인계DT,,경기도 수원시 팔달구 인계로94번길 3 (인계동),37.2679320268784,127.027957670484,운영8(경기남부),수원팔달 지역,,,,,
store,해운대달맞이DT,,부산광역시 해운대구 달맞이길 57 (중동) 1~3층,35.161519147795,129.171162850648,운영11(부산/양산),부산해운대 지역,,,,,
store,수원트레이더스,,경기도 수원시 영통구 삼성로 2 트레이더스수원점 (신동),37.2460729860148,127.048594623957,운영8(경기남부),수원영통 지역,,,,,
store,광주쌍암,,광주광역시 광산구 첨단중앙로 158 (쌍암동),35.2192910463865,126.842390042019,운영10(광주/전라),광주광산/나주 지역,,,,,
store,영남대아트센터,,경상북도 경산시 대학로 280 (대동) 영남대학교,35.8304916312343,128.75218013148,운영13(대구/경북/제주),대구경산 지역,,,,,
store,부산중앙역,,부산광역시 중구 중앙대로81번길 2 (중앙동4가),35.1051483460321,129.035917866365,운영11(부산/양산),부산남구/동구 지역,,,,,
store,수지성복DT,,경기도 용인시 수지구 성복2로 55 (성복동),37.3140997157525,127.079220634692,운영8(경기남부),용인수지 지역,,,,,
store,도곡역,,서울특별시 강남구 남부순환로 2909 (대치동),37.4921823099018,127.057410744328,운영1(서울남부),대치/선릉 지역,,,,,
store,대구공평DT,,대구광역시 중구 국채보상로 642 (동인동2가),35.8695591195788,128.600678742141,운영13(대구/경북/제주),대구중구 지역,,,,,
store,대전대덕로,,대전광역시 서구 대덕대로234번길 18 (둔산동),36.3533519633572,127.380599488763,운영9(대전/세종/충청),대전둔산/홍성 지역,,,,,
store,인천삼산,,인천광역시 부평구 길주로 643 (삼산동),37.5072210634066,126.734195493316,운영7(인천/경기서부),부천서부 지역,,,,,
store,영등포신길,,"서울특별시 영등포구 신길로 137 (신길동) 1,2층",37.51077794161146,126.91169259300172,운영3(서울서남),영등포동부 지역,,,,,
store,일산식사,,경기도 고양시 일산동구 위시티2로11번길 31 (식사동),37.6779379522166,126.812160775973,운영5(서울서북/경기서북부),고양/덕양 지역,,,,,
store,대전목원대,,대전광역시 서구 동서대로 682 (도안동),36.331814949449,127.338633146752,운영9(대전/세종/충청),대전관저/논산 지역,,,,,
store,양재역,,서울특별시 서초구 강남대로 202 (양재동) 모산빌딩,37.4823264528673,127.036861922329,운영1(서울남부),서초 지역,,,,,
store,제주용담DT,,제주특별자치도 제주시 서해안로 380 (용담삼동) 화이트하우스,33.5123994033523,126.484509957101,운영13(대구/경북/제주),제주서북 지역,,,,,
store,종로수송,,서울특별시 종로구 종로5길 30 (청진동) 1~3층,37.57305501424973,126.98116918032844,운영5(서울서북/경기서북부),광화문/종로 지역,,,,,
store,논현역,,서울특별시 서초구 강남대로 557 (잠원동) 1~2층,37.51120000205266,127.02165424259898,운영1(서울남부),강남대로 지역,,,,,
store,수지동천,,경기도 용인시 수지구 손곡로,37.3361367143647,127.094677823509,운영8(경기남부),용인수지 지역,,,,,
store,사가정역,,서울특별시 중랑구 면목로 310,37.5796278612169,127.087950762615,운영6(서울동북/경기북부),중랑 지역,,,,,
store,대전관저,,대전광역시 서구 관저로 142 (관저동),36.2985711712256,127.33793374806,운영9(대전/세종/충청),대전관저/논산 지역,,,,,
store,광명하안,,경기도 광명시 범안로 1060 (하안동),37.462604332239,126.880661976949,운영7(인천/경기서부),광명 지역,,,,,
store,김해대로DT,,경상남도 김해시 김해대로 2465,35.2279428522551,128.896463830438,운영12(경남/울산/포항/경주),김해 지역,,,,,
store,북촌로,,서울특별시 종로구 북촌로4길 23 (계동),37.5794487466256,126.986467254784,운영4(서울중부/강원),종로 지역,,,,,
store,서면전포역,,부산광역시 부산진구 전포대로199번길 27 (전포동),35.1542752909726,129.063594906789,운영11(부산/양산),부산서면/진구 지역,,,,,
store,울산대,,울산광역시 남구 대학로84번길 5-3 (무거동),35.5424371245473,129.260195940577,운영12(경남/울산/포항/경주),울산남구 지역,,,,,
store,단대오거리역,,경기도 성남시 중원구 산성대로 340-1 (중앙동),37.4433650622925,127.154589757858,운영2(서울동남/경기동부),성남/위례 지역,,,,,
store,대구상인DT,,대구광역시 달서구 월곡로 334 (상인동),35.8227814055473,128.533775963357,운영13(대구/경북/제주),대구달서 지역,,,,,
store,서소문로,,서울특별시 중구 서소문로 120 (서소문동) 대한빌딩,37.5628683143675,126.974678797888,운영4(서울중부/강원),소공 지역,,,,,
store,문래역,,서울특별시 영등포구 당산로 34 (문래동3가),37.5174631210953,126.896493699106,운영3(서울서남),영등포서부 지역,,,,,
store,여의도ABL타워,,서울특별시 영등포구 의사당대로 147 (여의도동) 알리안츠타워,37.5188219877864,126.927839304626,운영3(서울서남),영등포동부 지역,,,,,
store,대전만년,,대전광역시 서구 만년로 81 (만년동),36.3676825411476,127.382002622866,운영9(대전/세종/충청),대전유성/보령 지역,,,,,
store,부민사거리,,부산광역시 서구 구덕로 212 (부민동1가),35.1035935290696,129.020259698374,운영11(부산/양산),부산중구/서구 지역,,,,,
store,고잔이마트,,경기도 안산시 단원구 원포공원1로 46 (초지동) 이마트,37.3031149487989,126.812920187596,운영7(인천/경기서부),안산 지역,,,,,
store,세종첫마을,,세종특별자치시  한누리대로 169 행복타워 1층,36.4802362669873,127.261813684858,운영9(대전/세종/충청),세종/공주 지역,,,,,
store,목포남악,,전라남도 무안군 남악3로82번길 11,34.8131061758293,126.461725533548,운영10(광주/전라),목포 지역,,,,,
store,목동7단지,,서울특별시 양천구 목동서로 213 (목동) 세신비젼프라자,37.5280169945095,126.870615708032,운영3(서울서남),목동 지역,,,,,
store,광주봉선중앙,,광주광역시 남구 봉선중앙로 51 (봉선동),35.1254035168964,126.911122145103,운영10(광주/전라),광주남구 지역,,,,,
store,동래미남DT,,부산광역시 동래구 충렬대로 101 (온천동),35.2071911138218,129.072019639895,운영11(부산/양산),부산동래/북구 지역,,,,,
store,평택AK플라자,,경기도 평택시 평택로 51 (평택동) 평택역,36.9918974768998,127.083288658126,운영8(경기남부),평택 지역,,,,,
store,신사역,,서울특별시 강남구 도산대로 108 (논현동) 렉스타워,37.5161918332017,127.020655869811,운영1(서울남부),압구정/신사 지역,,,,,
store,명동길,,서울특별시 중구 명동10길 41,37.5620569449565,126.985872679878,운영4(서울중부/강원),명동/충무로 지역,,,,,
store,원당DT,,경기도 고양시 덕양구 호국로 811 (주교동),37.6582116603853,126.837601287965,운영5(서울서북/경기서북부),고양/덕양 지역,,,,,
store,대구두류DT,,대구광역시 달서구 달구벌대로 1798 (두류동),35.8588570328771,128.561845569756,운영13(대구/경북/제주),대구중구 지역,,,,,
store,부산개금역,,부산광역시 부산진구 가야대로 462 (개금동),35.1528609632447,129.022473137771,운영11(부산/양산),부산사상/사하 지역,,,,,
store,포항대이,,경상북도 포항시 남구 포스코대로 124 (대잠동),36.0253084463444,129.339520444491,운영12(경남/울산/포항/경주),포항 지역,,,,,
store,광주황금,,광주광역시 동구 중앙로160번길 14 (황금동),35.1473523813342,126.914574640451,운영10(광주/전라),광주동구 지역,,,,,
store,광주신가DT,,광주광역시 광산구 목련로 335 (신가동),35.1791548470681,126.830023336229,운영10(광주/전라),광주서구 지역,,,,,
store,중구저동,,서울특별시 중구 수표로 34 (저동2가),37.564378723742,126.990358289779,운영4(서울중부/강원),명동/충무로 지역,,,,,
store,천안성정DT,,충청남도 천안시 서북구 동서대로 154 (성정동),36.8254128847124,127.140374813643,운영9(대전/세종/충청),천안동남 지역,,,,,
store,미아사거리역,,서울특별시 강북구 도봉로 32 (미아동),37.6118468027305,127.030708756258,운영6(서울동북/경기북부),강북 지역,,,,,
store,문정로데오,,서울특별시 송파구 동남로 141 (가락동),37.4919026462716,127.126252486711,운영2(서울동남/경기동부),문정/가락 지역,,,,,
store,별내,,경기도 남양주시 별내중앙로 64 1-2층,37.66367185054125,127.09527259635534,운영6(서울동북/경기북부),구리/별내 지역,,,,,
store,약수역,,서울특별시 중구 다산로 129 (신당동),37.5554333519362,127.010728945578,운영3(서울서남),한남/성동 지역,,,,,
store,자양사거리,,서울특별시 광진구 아차산로 355,37.5373676062503,127.082565478795,운영6(서울동북/경기북부),광진 지역,,,,,
store,대구동천,,대구광역시 북구 동천로 123,35.9425558986906,128.560511580363,운영13(대구/경북/제주),대구북구 지역,,,,,
store,동탄센트럴파크,,경기도 화성시 동탄지성로 104 센트럴파티오,37.2083330483944,127.063800409286,운영8(경기남부),동탄서부 지역,,,,,
store,인천계양,,인천광역시 계양구 장제로 808 (계산동),37.539853243999,126.735052103151,운영7(인천/경기서부),인천부평/계양 지역,,,,,
store,대전관평동,,대전광역시 유성구 테크노중앙로 68,36.4254785005705,127.392641556135,운영9(대전/세종/충청),대전유성/관평 지역,,,,,
store,김포이마트,,경기도 김포시 김포한강7로 71,37.6443389795406,126.628286240998,운영7(인천/경기서부),김포 지역,,,,,
store,오산시청,,경기도 오산시 운천로 61,37.1482764641751,127.074318422287,운영8(경기남부),평택/오산 지역,,,,,
store,대전조이마루,,대전광역시 유성구 엑스포로 97번길 40,36.376343373624,127.390466196206,운영9(대전/세종/충청),대전유성/노은 지역,,,,,
store,석촌서호,,서울특별시 송파구 석촌호수로 176 (삼전동),37.5063728142812,127.096628015109,운영1(서울남부),송파 지역,,,,,
store,동여의도,,서울특별시 영등포구 국제금융로 86 (여의도동) 롯데캐슬 아이비,37.5202061193308,126.931800002781,운영3(서울서남),영등포동부 지역,,,,,
store,세종이마트,,세종특별자치시 금송로 687(가람동 406) 이마트 세종점,36.4708996466069,127.250982490572,운영9(대전/세종/충청),세종/공주 지역,,,,,
store,수원이비스,,경기도 수원시 팔달구 권광로 132 (인계동),37.2592264880946,127.031314893854,운영8(경기남부),수원팔달 지역,,,,,
store,울산삼산로,,울산광역시 남구 삼산로 278 번길 8 (삼산동),35.5384823063988,129.337299381485,운영12(경남/울산/포항/경주),울산동구 지역,,,,,
store,대구시지,,대구광역시 수성구 달구벌대로 3216 (신매동),35.8394855019047,128.708019393135,운영13(대구/경북/제주),대구수성 지역,,,,,
store,화곡동,,서울특별시 강서구 화곡로 142(화곡동),37.5405665780291,126.837581836675,운영3(서울서남),화곡 지역,,,,,
store,전주한옥마을,,전북특별자치도 전주시 완산구 팔달로 123 (전동),35.8134459248153,127.148523391326,운영10(광주/전라),전주남부 지역,,,,,
store,역곡역DT,,경기도 부천시 소사구 경인로 485 (괴안동),37.4835597867018,126.809278932755,운영7(인천/경기서부),부천동부 지역,,,,,
store,천안불당,,충청남도 천안시 서북구 불당4로 91 (불당동),36.8100462600841,127.110961215633,운영9(대전/세종/충청),천안서북 지역,,,,,
store,중랑구청,,서울특별시 중랑구 신내로 72,37.6054064377729,127.09566855816,운영6(서울동북/경기북부),중랑 지역,,,,,
store,거제고현,,경상남도 거제시 거제중앙로 1936 (고현동),34.8907709235805,128.622184858268,운영12(경남/울산/포항/경주),거제/통영 지역,,,,,
store,상암디지털큐브,,서울특별시 마포구 상암산로 34,37.5762102049855,126.889239900296,운영5(서울서북/경기서북부),합정/상암 지역,,,,,
store,양산터미널,,경상남도 양산시 양산역1길 7 (중부동) 양산시외버스터미널,35.3356342327243,129.026746306529,운영11(부산/양산),양산 지역,,,,,
store,제주칠성,,제주특별자치도 제주시 관덕로 55 (일도일동),33.5133488425736,126.525243369504,운영13(대구/경북/제주),제주동북 지역,,,,,
store,연희DT,,서울특별시 서대문구 연희로 144 (연희동),37.5701890591183,126.93389011557,운영5(서울서북/경기서북부),홍대/서대문 지역,,,,,
store,대구팔공산,,대구광역시 동구 파계로 650,35.9879558142843,128.636403167147,운영13(대구/경북/제주),대구동구 지역,,,,,
store,을지병원사거리,,"서울특별시 강남구 논현로 752 (논현동,구산빌딩)",37.5191609544084,127.028644440099,운영1(서울남부),압구정/신사 지역,,,,,
store,전주홍산로,,전북특별자치도 전주시 완산구 홍산로 238 (효자동2가),35.814858006075,127.106474009294,운영10(광주/전라),전주남부 지역,,,,,
store,세종종촌,,세종특별자치시  도움3로 105-10 (종촌동) 성운프라자,36.504105243814,127.24938714397,운영9(대전/세종/충청),세종/오송 지역,,,,,
store,포항양덕,,경상북도 포항시 북구 장량로 162 (양덕동),36.0815569826645,129.398181725403,운영12(경남/울산/포항/경주),포항 지역,,,,,
store,왕십리역,,서울특별시 성동구 왕십리로 326 (도선동),37.5627268703824,127.033894304026,운영6(서울동북/경기북부),왕십리 지역,,,,,
store,구의DT,,서울특별시 광진구 광나루로 519 (구의동),37.5453065761171,127.087213258945,운영6(서울동북/경기북부),광진 지역,,,,,
store,명동중앙로,,서울특별시 중구 명동길 60 (명동 2가),37.5637739596312,126.985753284029,운영4(서울중부/강원),명동/충무로 지역,,,,,
store,오산IC DT,,경기도 오산시 원동로 74 (원동),37.1423120773777,127.076861617803,운영8(경기남부),평택/오산 지역,,,,,
store,광주금호DT,,광주광역시 서구 운천로109번길 1 (쌍촌동),35.1421472263322,126.857637630373,운영10(광주/전라),광주서구 지역,,,,,
store,안동시청,,경상북도 안동시 서동문로 173 (삼산동),36.5663628790466,128.731134198401,운영13(대구/경북/제주),대구달서/안동 지역,,,,,
store,수원광교,,경기도 수원시 영통구 센트럴타운로 85 (이의동) 광교C1호반베르디움,37.2915676707273,127.050470929016,운영8(경기남부),수원광교 지역,,,,,
store,광주용두DT,,광주광역시 북구 임방울대로 1016 (신용동),35.2127945999465,126.868544233443,운영10(광주/전라),광주북구 지역,,,,,
store,판교브릿지타워,,경기도 성남시 분당구 판교로 227번길 6 (삼평동),37.4030349434811,127.099241162297,운영2(서울동남/경기동부),판교/야탑 지역,,,,,
store,대전유성,,대전광역시 유성구 온천서로 2 (봉명동),36.3545426914696,127.339536161131,운영9(대전/세종/충청),대전유성/보령 지역,,,,,
store,제주노형,,제주특별자치도 제주시 도령로 27 (노형동),33.4878254153069,126.481855636151,운영13(대구/경북/제주),제주서북 지역,,,,,
store,제주중문DT,,제주특별자치도 서귀포시 천제연로 95(색달동),33.2550716537896,126.41585593383,운영13(대구/경북/제주),제주서남 지역,,,,,
store,BIFC Mall,,부산광역시 남구 문현금융로 40 (문현동) 부산국제금융센터,35.1464917263976,129.065854840531,운영11(부산/양산),부산서면/진구 지역,,,,,
store,인천갈산DT,,인천광역시 부평구 장제로 371 (갈산동),37.5188426427657,126.732126187304,운영7(인천/경기서부),인천부평/계양 지역,,,,,
store,평촌역사거리,,경기도 안양시 동안구 시민대로 311 금강스마트 빌딩 1층(관양동1746),37.3960785735488,126.964662720477,운영2(서울동남/경기동부),과천/평촌 지역,,,,,
store,일산후곡,,경기도 고양시 일산서구 일산로 541 (일산동),37.6774361990436,126.767698078209,운영5(서울서북/경기서북부),일산동구 지역,,,,,
store,부천신중동역,,경기도 부천시 원미구 길주로 281 (중동),37.5038062566074,126.774155160749,운영7(인천/경기서부),부천동부 지역,,,,,
store,김포운양,,경기도 김포시 김포한강11로 288-32,37.6543052105131,126.684173445491,운영7(인천/경기서부),김포 지역,,,,,
store,스타필드마켓일산,,경기도 고양시 일산서구 킨텍스로 171,37.6615831401235,126.744065435785,운영5(서울서북/경기서북부),일산서구/야당 지역,,,,,
store,상수역,,서울특별시 마포구 독막로 88 (상수동),37.5475156867782,126.923227600752,운영5(서울서북/경기서북부),신촌 지역,,,,,
store,대전수침교DT,,대전광역시 서구 계룡로 692 (용문동),36.3350330571533,127.396776865163,운영9(대전/세종/충청),대전중구/판암 지역,,,,,
store,서판교,,경기도 성남시 분당구 운중로 132 (운중동),37.3912982042505,127.077732126938,운영2(서울동남/경기동부),판교/정자 지역,,,,,
store,안양석수DT,,경기도 안양시 만안구 경수대로 1397 (석수동),37.4310992108826,126.903559665734,운영2(서울동남/경기동부),안양 지역,,,,,
store,부산안락DT,,부산광역시 동래구 충렬대로 446 (안락동),35.1958904040062,129.106880725779,운영11(부산/양산),부산동래/북구 지역,,,,,
store,신월IC DT,,서울특별시 양천구 남부순환로 430 (신월동),37.5294934216077,126.832134462573,운영3(서울서남),화곡 지역,,,,,
store,송파사거리,,서울특별시 송파구 송파대로 386 (송파동),37.5022731990672,127.110354257671,운영1(서울남부),송파 지역,,,,,
store,대구감삼DT,,대구광역시 달서구 와룡로 131,35.8444530850719,128.536671210831,운영13(대구/경북/제주),대구남구 지역,,,,,
store,공덕오거리,,서울특별시 마포구 마포대로 86 (도화동) 창강빌딩,37.5426033396677,126.950510428106,운영5(서울서북/경기서북부),마포 지역,,,,,
store,구파발역,,서울특별시 은평구 진관2로 12,37.6342576294538,126.918550997661,운영5(서울서북/경기서북부),고양/은평 지역,,,,,
store,중랑역,,서울특별시 중랑구 망우로30길 3 (상봉동),37.5930806702101,127.0747508051,운영6(서울동북/경기북부),중랑 지역,,,,,
store,평내DT,,경기도 남양주시 경춘로 1269,37.6477196382862,127.234719105199,운영6(서울동북/경기북부),남양주/가평 지역,,,,,
store,안양비산DT,,경기도 안양시 동안구 경수대로 821 (비산동),37.3926352227846,126.942966666654,운영2(서울동남/경기동부),안양 지역,,,,,
store,오목교역,,서울특별시 양천구 오목로 354 (목동),37.5239812598499,126.876796062529,운영3(서울서남),목동 지역,,,,,
store,신설동역,,서울특별시 동대문구 왕산로 19 (신설동),37.5767090920194,127.025524677025,운영4(서울중부/강원),동대문 지역,,,,,
store,서귀포DT,,제주특별자치도 서귀포시 일주서로 11 (강정동),33.2495228494612,126.506723255212,운영13(대구/경북/제주),제주서남 지역,,,,,
store,강북구청사거리,,서울특별시 강북구 도봉로 365 (수유동),37.6400141810051,127.027385316418,운영6(서울동북/경기북부),강북 지역,,,,,
store,대구삼성화재,,대구광역시 수성구 동대구로 401 (범어동) 삼성화재사옥,35.8661560268387,128.626238693338,운영13(대구/경북/제주),대구수성/동구 지역,,,,,
store,센텀로,,부산광역시 해운대구 센텀2로 10 (우동) 센텀메디컬센타 1층 스타벅스 센텀로점,35.1678303309299,129.131522464341,운영11(부산/양산),부산센텀 지역,,,,,
store,광주첨단신용,,광주광역시 북구 첨단연신로 101 (신용동),35.2070115110585,126.864038287967,운영10(광주/전라),광주북구 지역,,,,,
store,구미시청DT,,경상북도 구미시 송정대로 27 (송정동),36.1176449787898,128.34158183849,운영13(대구/경북/제주),구미/김천 지역,,,,,
store,사당로데오,,서울특별시 서초구 방배천로 5-4(방배동),37.4772993533214,126.98217828522,운영3(서울서남),사당/동작 지역,,,,,
store,광교이마트,,경기도 수원시 영통구 광교로 191(이의동),37.2963500230486,127.046954360227,운영8(경기남부),수원광교 지역,,,,,
store,용인마북DT,,경기도 용인시 기흥구 용구대로 2330,37.2946579990573,127.110357814576,운영8(경기남부),용인기흥 지역,,,,,
store,평택로데오,,경기도 평택시 중앙2로 13 (평택동),36.9919679335424,127.088529292549,운영8(경기남부),평택 지역,,,,,
store,안양역,,경기도 안양시 만안구 장내로 149번길 (안양동)53,37.4003260238437,126.922178588099,운영2(서울동남/경기동부),안양 지역,,,,,
store,논산중앙,,충청남도 논산시 중앙로398번길 13-10,36.2012814366874,127.089894900831,운영9(대전/세종/충청),대전관저/논산 지역,,,,,
store,대전전민,,대전광역시 유성구 유성대로 1722 (전민동),36.3994624009542,127.400512099903,운영9(대전/세종/충청),대전유성/관평 지역,,,,,
store,청주성화,,충청북도 청주시 서원구 복대로 5 (개신동),36.6176310363109,127.446069483123,운영9(대전/세종/충청),청주서부 지역,,,,,
store,청주봉명DT,,충청북도 청주시 흥덕구 1순환로 514 (봉명동),36.6467762346391,127.464545303938,운영9(대전/세종/충청),청주동부 지역,,,,,
store,대구죽곡,,대구광역시 달성군 달구벌대로 861 (다사읍),35.8591486756464,128.464242666447,운영13(대구/경북/제주),대구달서/안동 지역,,,,,
store,인천청라타워돔,,인천광역시 서구 중봉대로 612번길 10-17,37.5339020590277,126.652034349285,운영7(인천/경기서부),인천서구 지역,,,,,
store,일산백마,,경기도 고양시 일산동구 일산로 237 (마두동),37.6571164293343,126.788083476822,운영5(서울서북/경기서북부),일산동구 지역,,,,,
store,동수원DT,,경기도 수원시 팔달구 중부대로 161 (우만동),37.2780693411983,127.033914975631,운영8(경기남부),수원팔달 지역,,,,,
store,선정릉역,,서울특별시 강남구 봉은사로 407 (삼성동) 에프오빌딩,37.5107810974307,127.044572539842,운영1(서울남부),논현/삼성 지역,,,,,
store,학동사거리,,서울특별시 강남구 도산대로 328 (논현동),37.5224022062676,127.037967162209,운영1(서울남부),청담 지역,,,,,
store,수원망포DT,,경기도 수원시 영통구 덕영대로 1467,37.2458753951071,127.051350789757,운영8(경기남부),수원영통 지역,,,,,
store,전주효자DT,,전북특별자치도 전주시 완산구 용머리로 7 (효자동1가),35.8055979233409,127.111130258967,운영10(광주/전라),전주남부 지역,,,,,
store,포항오천,,경상북도 포항시 남구 오천읍 원동로 15,35.9642401940043,129.40271870596,운영12(경남/울산/포항/경주),경주/포항 지역,,,,,
store,진주칠암DT,,경상남도 진주시 진주대로829번길 2 (주약동),35.1748597503887,128.092882739273,운영12(경남/울산/포항/경주),진주/사천 지역,,,,,
store,연세백양로,,서울특별시 서대문구 연세로 50 (신촌동) 연세대학교,37.5660508394158,126.943916239886,운영5(서울서북/경기서북부),신촌 지역,,,,,
store,청주율량DT,,충청북도 청주시 청원구 충청대로107번길 8 (율량동),36.6662527483317,127.492985007466,운영9(대전/세종/충청),청주동부 지역,,,,,
store,서울중앙우체국,,서울특별시 중구 소공로 70 (충무로 1가) 서울 중앙 우체국,37.5615987374058,126.982169090151,운영4(서울중부/강원),명동/충무로 지역,,,,,
store,종암,,서울특별시 성북구 종암로 122 (종암동),37.6011832496778,127.033920575732,운영4(서울중부/강원),성북/동대문 지역,,,,,
store,을지로경기빌딩,,서울특별시 중구 남대문로10길 9 (삼각동) 경기빌딩,37.5672075049558,126.983233108359,운영4(서울중부/강원),을지로 지역,,,,,
store,올림픽평화의문,,서울특별시 송파구 위례성대로 38 (방이동) 해태그린피아빌라트,37.5156925346572,127.116497173629,운영1(서울남부),송파 지역,,,,,
store,인천당하DT,,인천광역시 서구 원당대로 668 (당하동),37.5933153924846,126.67544531099,운영7(인천/경기서부),김포/인천검단 지역,,,,,
store,대전IC DT,,대전광역시 대덕구 동서대로 1776 (비래동),36.3542206429137,127.444219971188,운영9(대전/세종/충청),대전탄방/용전 지역,,,,,
store,회현역,,서울특별시 중구 퇴계로 72 (회현동) 리더스뷰남산,37.5591253443035,126.980603849217,운영4(서울중부/강원),남대문/회현 지역,,,,,
store,대전지족,,대전광역시 유성구 지족로 373 (지족동),36.3872284368253,127.317544904203,운영9(대전/세종/충청),대전유성/노은 지역,,,,,
store,속초DT,,강원특별자치도 속초시 동해대로 4114 (조양동),38.1898928301563,128.584437507819,운영4(서울중부/강원),속초/동해 지역,,,,,
store,대구성서IC DT,,대구광역시 달서구 달구벌대로 1393,35.8508037429598,128.520213909297,운영13(대구/경북/제주),대구달서/안동 지역,,,,,
store,인천공항T1에어3F,,인천광역시 중구 공항로 272 (운서동) 인천국제공항여객터미널 FB-P5-73,37.458350712273,126.427699293474,운영7(인천/경기서부),인천영종 지역,,,,,
store,철산로데오,,경기도 광명시 디지털로 17 (철산1동) 가림빌딩,37.4740127796263,126.869364351226,운영7(인천/경기서부),광명 지역,,,,,
store,경기광주,,경기도 광주시 광주대로 35 (경안동),37.4097399096057,127.260210078147,운영2(서울동남/경기동부),경기/광주 지역,,,,,
store,신영통DT,,경기도 화성시 영통로 43 (반월동),37.2343927161612,127.062971991075,운영8(경기남부),동탄서부 지역,,,,,
store,의정부녹양DT,,경기도 의정부시 비우로 119 (가능동),37.7585656369902,127.040240973957,운영6(서울동북/경기북부),의정부/도봉 지역,,,,,
store,대구평리DT,,대구광역시 서구 서대구로 89 (평리1동),35.8659449872571,128.555319851164,운영13(대구/경북/제주),대구중구 지역,,,,,
store,대구상동DT,,대구광역시 수성구 무학로 29(상동),35.8295876278163,128.61169692122,운영13(대구/경북/제주),대구수성 지역,,,,,
store,고양DT,,경기도 고양시 덕양구 호국로 1775 (고양동),37.7095718168744,126.905337435144,운영5(서울서북/경기서북부),고양/은평 지역,,,,,
store,전주서신,,전북특별자치도 전주시 완산구 서신로 104 (서신동),35.8346230741149,127.116116397711,운영10(광주/전라),전주서부/군산 지역,,,,,
store,목포북항DT,,전라남도 목포시 고하대로 694 (산정동),34.808686540372,126.373278414765,운영10(광주/전라),목포 지역,,,,,
store,광주북구청,,광주광역시 북구 서방로9번길 30 (중흥동),35.1747735946723,126.914412037956,운영10(광주/전라),광주북구 지역,,,,,
store,광주풍암,,광주광역시 서구 풍암2로 8 (풍암동) 한아름빌딩,35.1268645565568,126.879611053405,운영10(광주/전라),광주서구 지역,,,,,
store,방배,,서울특별시 서초구 방배로 211,37.4919937926243,126.990641023566,운영1(서울남부),반포/이수 지역,,,,,
store,숭실대입구역,,서울특별시 동작구 상도로 354 (상도동),37.4968732072958,126.952724064808,운영3(서울서남),사당/동작 지역,,,,,
store,방배카페거리,,서울특별시 서초구 방배중앙로 162 (방배동),37.4935343927393,126.986570860605,운영1(서울남부),반포/이수 지역,,,,,
store,울산남구청DT,,울산광역시 남구 번영로 215 (신정동),35.5441460438229,129.324689646371,운영12(경남/울산/포항/경주),울산남구 지역,,,,,
store,울산중리사거리DT,,울산광역시 남구 돋질로 310 (삼산동),35.5438664908466,129.338590464362,운영12(경남/울산/포항/경주),울산동구 지역,,,,,
store,수영망미DT,,부산광역시 수영구 과정로 68 (망미동),35.1773899390167,129.107494570004,운영11(부산/양산),부산수영/남구 지역,,,,,
store,인천용현DT,,인천광역시 미추홀구 아암대로 107 (용현동),37.4523995205236,126.632512053573,운영7(인천/경기서부),인천제물포 지역,,,,,
store,부천중동DT,,경기도 부천시 원미구 부흥로 193 (중동),37.4963486564846,126.764291149926,운영7(인천/경기서부),부천서부 지역,,,,,
store,대전유천DT,,대전광역시 중구 계백로 1604 (유천동),36.3183406654299,127.398255822198,운영9(대전/세종/충청),대전관저/논산 지역,,,,,
store,합정,,"서울특별시 마포구 월드컵로1길 14 (합정동) 마포한강푸르지오 110, 111, 112-2",37.5500497954747,126.912061257921,운영5(서울서북/경기서북부),합정/상암 지역,,,,,
store,김천시청DT,,경상북도 김천시 시청로 47 (대신동),36.1325674659782,128.117632880025,운영13(대구/경북/제주),구미/김천 지역,,,,,
store,진주평거,,경상남도 진주시 진양호로 206 BYC빌딩1층,35.1725294804326,128.060070897897,운영12(경남/울산/포항/경주),진주/사천 지역,,,,,
store,동대구로DT,,대구광역시 동구 동대구로 422 (신천동),35.8681055755118,128.627135108051,운영13(대구/경북/제주),대구수성/동구 지역,,,,,
store,서교동사거리,,서울특별시 마포구 양화로 105 (서교동),37.5534135689843,126.91857704379,운영5(서울서북/경기서북부),홍대/서대문 지역,,,,,
store,성남이마트,,경기도 성남시 수정구 수정로 201 (태평1동) 신세계쉐덴,37.4442862725336,127.141411017385,운영2(서울동남/경기동부),성남/위례 지역,,,,,
store,경주터미널DT,,경상북도 경주시 태종로 686 (사정동),35.8380541659134,129.203332063412,운영12(경남/울산/포항/경주),경주/포항 지역,,,,,
store,대구칠곡대로DT,,대구광역시 북구 칠곡중앙대로 348 (태전동),35.9265123943956,128.547935434884,운영13(대구/경북/제주),대구북구 지역,,,,,
store,대구황금DT,,대구광역시 수성구 청수로 164 (지산동),35.8390778608446,128.625902841291,운영13(대구/경북/제주),대구수성 지역,,,,,
store,상봉,,"서울특별시 중랑구 상봉로 131 (상봉동, 상봉 듀오트리스 주상복합)",37.5974066200134,127.092177640813,운영6(서울동북/경기북부),중랑 지역,,,,,
store,선유동이레빌딩,,서울특별시 영등포구 선유동2로 57 (양평제1동) 이레빌딩,37.5338259242698,126.896882129276,운영3(서울서남),영등포서부 지역,,,,,
store,상암사보이시티,,서울특별시 마포구 월드컵북로54길 17 (상암동),37.581324224744,126.888548408154,운영5(서울서북/경기서북부),합정/상암 지역,,,,,
store,인천송도DT,,인천광역시 연수구 하모니로 136 (송도동),37.3848195675891,126.644281288394,운영7(인천/경기서부),인천송도 지역,,,,,
store,인천간석DT,,인천광역시 남동구 경원대로 974 (간석동),37.4697259354073,126.69084020703,운영7(인천/경기서부),인천미추홀 지역,,,,,
store,송도캠퍼스타운역,,인천광역시 연수구 송도과학로27번길 55 (송도동) 롯데캠퍼스타운,37.3892363233087,126.665127593356,운영7(인천/경기서부),인천송도 지역,,,,,
store,행신역,,경기도 고양시 덕양구 충장로 14 (행신동),37.6140363794407,126.834476120236,운영5(서울서북/경기서북부),고양/덕양 지역,,,,,
store,판교알파돔시티,,"경기도 성남시 분당구 판교역로 145 타워2동 1층, 138~142호 (백현동530, 알파리움)",37.3944039022277,127.108352326702,운영2(서울동남/경기동부),판교/정자 지역,,,,,
store,대전신탄진DT,,대전광역시 대덕구 대덕대로 1544 (석봉동),36.4487152615546,127.419927368445,운영9(대전/세종/충청),대전유성/관평 지역,,,,,
store,구미옥계,,경상북도 구미시 옥계북로 20 (양포동),36.1382986980683,128.419560317699,운영13(대구/경북/제주),구미/김천 지역,,,,,
store,춘천석사DT,,강원특별자치도 춘천시 후석로 13 (석사동),37.8566966704631,127.739310186527,운영4(서울중부/강원),춘천 지역,,,,,
store,포스코사거리,,서울특별시 강남구 테헤란로 505 (삼성동) 화진빌딩,37.5075694059412,127.057440735405,운영1(서울남부),삼성 지역,,,,,
store,여의도역R,,서울특별시 영등포구 의사당대로 83 (여의도동) 1층,37.5233667660094,126.923451000009,운영3(서울서남),여의도 지역,,,,,
store,리버사이드팔당DT,,경기도 남양주시 와부읍 경강로 772,37.5671123853766,127.228392012316,운영6(서울동북/경기북부),다산/양평 지역,,,,,
store,평택험프리 트룹몰,,경기도 평택시 팽성대교길 153 (팽성읍),36.9746164711378,127.037649177935,운영8(경기남부),평택 지역,,,,,
store,평택험프리 메인몰,,경기도 평택시 팽성대교길 153-1 (팽성읍),36.9743394407491,127.037479682395,운영8(경기남부),평택 지역,,,,,
store,둔촌동,,서울특별시 강동구 양재대로 1303 (성내동) 평원빌딩,37.5227713188467,127.133949850418,운영2(서울동남/경기동부),강동 지역,,,,,
store,대전가수원DT,,대전광역시 서구 계백로 1128 (가수원동),36.3037086156568,127.348922297074,운영9(대전/세종/충청),대전관저/논산 지역,,,,,
store,천안IC DT,,충청남도 천안시 동남구 신부15길 3 (신부동),36.8203283084139,127.161448176783,운영9(대전/세종/충청),천안동남 지역,,,,,
store,해운대,,부산광역시 해운대구 구남로 49 (중동) 101호,35.1601601914016,129.162174768232,운영11(부산/양산),부산해운대 지역,,,,,
store,송파아이파크,,서울특별시 송파구 법원로 55 (문정동),37.4798536473034,127.121966489044,운영2(서울동남/경기동부),문정/가락 지역,,,,,
store,서울타워,,서울특별시 용산구 남산공원길 105 (용산동2가) YTN서울타워 1층,37.5511225714939,126.987867837993,운영4(서울중부/강원),남대문/회현 지역,,,,,
store,용인동백DT,,경기도 용인시 기흥구 어정로 102 (상하동),37.2745902291508,127.141240011981,운영8(경기남부),용인기흥 지역,,,,,
store,용인시청DT,,경기도 용인시 처인구 중부대로 1130,37.2403563629796,127.170987629999,운영8(경기남부),용인처인 지역,,,,,
store,낙성대DT,,서울특별시 관악구 남부순환로 1948 (봉천동),37.4761875809579,126.965131629973,운영3(서울서남),사당/동작 지역,,,,,
store,중앙대,,서울특별시 동작구 흑석로 75-1 (흑석동),37.5069728187307,126.958130329436,운영3(서울서남),사당/동작 지역,,,,,
store,동두천DT,,경기도 동두천시 평화로 2254 (지행동),37.8890682844562,127.057027822686,운영6(서울동북/경기북부),양주/동두천 지역,,,,,
store,서울대역,,서울특별시 관악구 남부순환로 1817 (봉천동),37.4816411686596,126.952144384523,운영3(서울서남),관악 지역,,,,,
store,청계산입구역,,서울특별시 서초구 청계산로 203 (신원동),37.4473249504426,127.056296409418,운영1(서울남부),서초 지역,,,,,
store,안양호계DT,,경기도 안양시 동안구 엘에스로 27 (호계동),37.3665218593435,126.956150308068,운영2(서울동남/경기동부),산본/안양 지역,,,,,
store,대구수목원,,대구광역시 달서구 화암로 379,35.8072267520666,128.520243640696,운영13(대구/경북/제주),대구달서 지역,,,,,
store,대구도원DT,,대구광역시 달서구 상화로 314 (도원동),35.8077311264256,128.548074967998,운영13(대구/경북/제주),대구달서 지역,,,,,
store,화곡DT,,서울특별시 강서구 등촌로 57 (화곡동),37.5350125900994,126.863143013828,운영3(서울서남),양천 지역,,,,,
store,울산성안,,울산광역시 중구 성안12길 45 (성안동),35.5779389843809,129.324202294902,운영12(경남/울산/포항/경주),울산북구/중구 지역,,,,,
store,동의대역,,부산광역시 부산진구 가야대로 589 (가야제1동),35.1549809422066,129.036204979707,운영11(부산/양산),부산사상/사하 지역,,,,,
store,여수둔덕DT,,전라남도 여수시 좌수영로 482 (둔덕동),34.768766954835,127.697498272276,운영10(광주/전라),여수 지역,,,,,
store,을숙도강변DT,,부산광역시 사하구 하신번영로 381-6 (하단동),35.1153636492672,128.959536554899,운영11(부산/양산),부산강서/사하 지역,,,,,
store,한국프레스센터,,서울특별시 중구 세종대로 124 (태평로1가),37.5674198878673,126.977873671097,운영4(서울중부/강원),을지로 지역,,,,,
store,광주상무시민로,,광주광역시 서구 운천로 253 (치평동) 103호,35.1549523494699,126.854406884408,운영10(광주/전라),광주서구 지역,,,,,
store,스타필드하남1F(티바나),,경기도 하남시 미사대로 750 (신장동),37.5454041231797,127.223940331575,운영2(서울동남/경기동부),하남/미사 지역,,,,,
store,스타필드하남2FR,,경기도 하남시 미사대로 750 (신장동),37.5454041231797,127.223940331575,운영2(서울동남/경기동부),하남/미사 지역,,,,,
store,부산재송DT,,부산광역시 해운대구 해운대로 189 (재송동),35.1812444744102,129.123977507105,운영11(부산/양산),부산센텀 지역,,,,,
store,송파방이DT,,서울특별시 송파구 오금로 241 (방이동),37.5065367665138,127.120485645995,운영1(서울남부),송파 지역,,,,,
store,고양삼송,,경기도 고양시 덕양구 신원동 628-2,37.6637140711444,126.891247329289,운영5(서울서북/경기서북부),고양/은평 지역,,,,,
store,제주애월DT,,제주특별자치도 제주시 애월읍 애월해안로 376,33.4727008501526,126.348753870498,운영13(대구/경북/제주),제주서북 지역,,,,,
store,제주성산DT,,제주특별자치도 서귀포시 성산읍 일출로 80,33.4497109599414,126.920694909089,운영13(대구/경북/제주),제주동북 지역,,,,,
store,신촌오거리,,서울특별시 마포구 신촌로16길 10 (노고산동),37.5551769148524,126.934676463778,운영5(서울서북/경기서북부),신촌 지역,,,,,
store,전남나주,,전라남도 나주시 상야1길 21 (빛가람동),35.0225881927899,126.787879878477,운영10(광주/전라),광주광산/나주 지역,,,,,
store,화성병점DT,,경기도 화성시 효행로 1015 (진안동),37.2127089137472,127.038275022009,운영8(경기남부),동탄서부 지역,,,,,
store,광주방림DT,,광주광역시 남구 대남대로 67 (방림동),35.1349240527698,126.917719683941,운영10(광주/전라),광주남구 지역,,,,,
store,동부산DT,,부산광역시 기장군 기장읍 기장해안로 56,35.184089090691,129.210809152212,운영11(부산/양산),부산해운대/기장 지역,,,,,
store,을지로2가,,서울특별시 중구 삼일대로 358 (을지로2가),37.5664890113878,126.988103724531,운영4(서울중부/강원),을지로 지역,,,,,
store,성신여대정문,,서울특별시 성북구 보문로34길 62 (동선동2가),37.5908419743847,127.01885953079,운영4(서울중부/강원),대학로 지역,,,,,
store,춘천후평DT,,강원특별자치도 춘천시 후석로 316 (후평동),37.8793575629796,127.750593504728,운영4(서울중부/강원),춘천 지역,,,,,
store,신림DT,,서울특별시 관악구 남부순환로 1419 (신림동),37.4809747497557,126.908418046683,운영3(서울서남),관악 지역,,,,,
store,대구중동네거리DT,,대구광역시 수성구 청수로 51 (중동),35.8409094003335,128.613928501647,운영13(대구/경북/제주),대구수성 지역,,,,,
store,삼성창원병원,,경상남도 창원시 마산회원구 팔용로 158 (합성동),35.2429963860914,128.591965801829,운영12(경남/울산/포항/경주),창원/마산 지역,,,,,
store,대구수성네거리DT,,대구광역시 수성구 들안로 342 (수성동4가),35.8604669098286,128.618020932649,운영13(대구/경북/제주),대구수성/동구 지역,,,,,
store,대치사거리,,서울특별시 강남구 삼성로 402 (대치동),37.5033679636045,127.058834462033,운영1(서울남부),대치/선릉 지역,,,,,
store,한남동R,,서울특별시 용산구 독서당로 94 (한남동),37.5348016217165,127.01093982785,운영3(서울서남),한남/성동 지역,,,,,
store,남양주진접DT,,경기도 남양주시 진접읍 금강로 1477,37.7228597177533,127.190254162916,운영6(서울동북/경기북부),남양주/가평 지역,,,,,
store,정자동,,경기도 성남시 분당구 정자로 82 (정자동),37.3631838990398,127.114064615047,운영2(서울동남/경기동부),분당정자/미금 지역,,,,,
store,광주수완DT,,광주광역시 광산구 임방울대로 487 (수완동),35.2031194356638,126.819033527654,운영10(광주/전라),광주광산/나주 지역,,,,,
store,대전둔산로,,대전광역시 서구 대덕대로241번길 35 (둔산동),36.3542762365985,127.377294135257,운영9(대전/세종/충청),대전둔산/홍성 지역,,,,,
store,대전법원,,대전광역시 서구 둔산로123번길 43 (둔산동),36.3533050629184,127.387425878275,운영9(대전/세종/충청),대전탄방/용전 지역,,,,,
store,서초법원,,서울특별시 서초구 서초대로 274 (서초동),37.4928194268706,127.011904030779,운영1(서울남부),교대 지역,,,,,
store,전남광양DT,,전라남도 광양시 중마중앙로 143,34.9431961989846,127.697792426746,운영10(광주/전라),순천/광양 지역,,,,,
store,동국대,,서울특별시 중구 서애로 1길 11,37.561326262637,126.998598237823,운영4(서울중부/강원),명동/충무로 지역,,,,,
store,신세계본점6F,,서울특별시 중구 퇴계로 77 (충무로1가),37.5603438884295,126.980823104019,운영4(서울중부/강원),남대문/회현 지역,,,,,
store,세종어진R,,세종특별자치시  한누리대로 499 (어진동),36.5080698154972,127.261123189578,운영9(대전/세종/충청),세종/오송 지역,,,,,
store,동탄영천,,경기도 화성시 동탄순환대로 692 (영천동),37.2067934401321,127.111415501955,운영8(경기남부),동탄동부 지역,,,,,
store,인천연수,,"인천광역시 연수구 용담로 115 (연수동) 105,106,203호",37.4276282947911,126.635854908576,운영7(인천/경기서부),인천미추홀 지역,,,,,
store,인천서창,,"인천광역시 남동구 서창남로 51 (서창동) 101,102,103호",37.42694828677495,126.73883196447368,운영7(인천/경기서부),인천남동 지역,,,,,
store,가산디지털단지역,,"서울특별시 금천구 벚꽃로 298 (가산동), 대륭포스트타워 6차 1층",37.4814401689835,126.883871693415,운영3(서울서남),가산 지역,,,,,
store,압구정,,서울특별시 강남구 압구정로30길 17 (신사동),37.5263301884169,127.029553686621,운영1(서울남부),압구정/신사 지역,,,,,
store,인천터미널사거리,,인천광역시 남동구 예술로 126 (구월동),37.4451295490218,126.700886698924,운영7(인천/경기서부),인천남동 지역,,,,,
store,울산정자비치DT,,울산광역시 북구 동해안로 1601 (산하동),35.6274509250202,129.441258041026,운영12(경남/울산/포항/경주),울산북구/중구 지역,,,,,
store,김해이마트,,경상남도 김해시 김해대로 2232 김해이마트 1층,35.2293396295983,128.872242572055,운영12(경남/울산/포항/경주),김해 지역,,,,,
store,신세계김해,,경상남도 김해시 김해대로 2232 신세계백화점 1층,35.2293396295983,128.872242572055,운영12(경남/울산/포항/경주),김해 지역,,,,,
store,광안비치,,부산광역시 수영구 광안로62번길 39 (광안동),35.1530869476615,129.11771328212,운영11(부산/양산),부산수영/남구 지역,,,,,
store,백석중앙로,,경기도 고양시 일산동구 강송로 33 (백석동),37.6440712087641,126.792801047835,운영5(서울서북/경기서북부),일산동구 지역,,,,,
store,울산시청사거리DT,,울산광역시 남구 중앙로 180 (달동),35.5371592220781,129.313510652196,운영12(경남/울산/포항/경주),울산남구 지역,,,,,
store,의정부회룡역DT,,경기도 의정부시 평화로 341 (호원동),37.7223946525076,127.047608322984,운영6(서울동북/경기북부),의정부/포천 지역,,,,,
store,동해DT,,강원특별자치도 동해시 중앙로 219 (천곡동),37.520153920057,129.114709041956,운영4(서울중부/강원),속초/동해 지역,,,,,
store,경산중방DT,,경상북도 경산시 경안로 222 (중방동),35.8274275599283,128.736841495015,운영13(대구/경북/제주),대구경산 지역,,,,,
store,대치은마사거리,,서울특별시 강남구 도곡로 457 (대치동),37.499003535147,127.060178595462,운영1(서울남부),대치/선릉 지역,,,,,
store,신당역사거리,,서울특별시 중구 다산로 258 (흥인동),37.5657948536437,127.016623843671,운영6(서울동북/경기북부),왕십리 지역,,,,,
store,대구진천역,,대구광역시 달서구 월배로 91 (진천동),35.8144515736677,128.524317894062,운영13(대구/경북/제주),대구달서 지역,,,,,
store,김포감정DT,,경기도 김포시 중봉로 27 (감정동),37.6248516781484,126.696566798641,운영7(인천/경기서부),김포/인천검단 지역,,,,,
store,강동역,,"서울특별시 강동구 천호대로 1089 (천호동, 강동 헤르셔)",37.5366048791746,127.133115595362,운영2(서울동남/경기동부),강동 지역,,,,,
store,대전태평,,대전광역시 중구 태평로 71 (태평동),36.3233039427153,127.393401285981,운영9(대전/세종/충청),대전중구/판암 지역,,,,,
store,남영동,,서울특별시 용산구 한강대로 275 (갈월동),37.5428705694081,126.972255573258,운영3(서울서남),용산 지역,,,,,
store,광주상무중앙로,,광주광역시 서구 상무중앙로 46 (치평동) 1층,35.1510597064884,126.848932925593,운영10(광주/전라),광주서구 지역,,,,,
store,별내불암로,,경기도 남양주시 별내5로5번길 15 (별내동),37.6504112219489,127.112441916328,운영6(서울동북/경기북부),구리/별내 지역,,,,,
store,전북정읍DT,,전북특별자치도 정읍시 충정로 271 (수성동),35.5704979392214,126.851914307544,운영10(광주/전라),전주북부/익산 지역,,,,,
store,평촌호계,,경기도 안양시 동안구 평촌대로 123 (호계동),37.3830059268623,126.959671634995,운영2(서울동남/경기동부),안양 지역,,,,,
store,목동오목로,,"서울특별시 양천구 오목로 279 (목동) 102,103,104,105호",37.52608388080751,126.87035534325852,운영3(서울서남),양천 지역,,,,,
store,대전대사DT,,대전광역시 중구 계룡로 949 (대사동),36.3188085807617,127.41742511321,운영9(대전/세종/충청),대전중구/판암 지역,,,,,
store,서강대흥역,,서울특별시 마포구 백범로 89-5 (대흥동),37.54824481409055,126.94154932438668,운영5(서울서북/경기서북부),마포 지역,,,,,
store,연세세브란스,,서울특별시 중구 통일로 10 (남대문로5가),37.5570966597,126.973633761228,운영4(서울중부/강원),남대문/회현 지역,,,,,
store,마포염리,,서울특별시 마포구 독막로 311 (염리동),37.5439986689042,126.947477716019,운영5(서울서북/경기서북부),마포 지역,,,,,
store,미아뉴타운,,서울특별시 강북구 삼양로 161 (미아동),37.6183899941147,127.021123478902,운영6(서울동북/경기북부),강북 지역,,,,,
store,동명대DT,,부산광역시 남구 신선로 423 (용당동),35.1231052079437,129.098972733227,운영11(부산/양산),부산남구/동구 지역,,,,,
store,대구중앙로역,,대구광역시 중구 국채보상로 582 (남일동),35.8706795257615,128.594356520484,운영13(대구/경북/제주),대구중구 지역,,,,,
store,신세계하남2F,,경기도 하남시 미사대로 750 (신장동),37.5454041231797,127.223940331575,운영2(서울동남/경기동부),하남/미사 지역,,,,,
store,국회의사당역,,서울특별시 영등포구 의사당대로 8 (여의도동),37.5278708587376,126.916895169744,운영3(서울서남),구로 지역,,,,,
store,김천구미역,,경상북도 김천시 혁신3로 26 (율곡동),36.1165342591621,128.181669815773,운영13(대구/경북/제주),구미/김천 지역,,,,,
store,익산영등DT,,전북특별자치도 익산시 무왕로 1005 (영등동),35.959391605982,126.968789896971,운영10(광주/전라),전주북부/익산 지역,,,,,
store,뉴코아부천,,경기도 부천시 원미구 송내대로 239 (상동),37.5041446553817,126.756721807955,운영7(인천/경기서부),부천서부 지역,,,,,
store,대전도안DT,,대전광역시 유성구 도안대로 573 (봉명동),36.3514162173755,127.340178649369,운영9(대전/세종/충청),대전유성/보령 지역,,,,,
store,상왕십리역,,서울특별시 성동구 왕십리로 382 (하왕십리동),37.5651102845783,127.028019796271,운영6(서울동북/경기북부),왕십리 지역,,,,,
store,동대문공원,,서울특별시 중구 장충단로 229 (광희동1가),37.5652135783939,127.007239173349,운영4(서울중부/강원),을지로 지역,,,,,
store,강남우성,,서울특별시 강남구 강남대로 328 (역삼동),37.4924272855457,127.030921234166,운영1(서울남부),강남/서초 지역,,,,,
store,오창호수공원,,"충청북도 청주시 청원구 오창읍 중심상업1로 20 101,102,103,104호",36.7149181240913,127.425519086515,운영9(대전/세종/충청),청주동부 지역,,,,,
store,연신내,,서울특별시 은평구 통일로 867 (갈현동),37.6202313639655,126.919897694543,운영5(서울서북/경기서북부),은평/서대문 지역,,,,,
store,포항장성DT,,경상북도 포항시 북구 새천년대로 1255 (장성동),36.0744862739104,129.38428081146,운영12(경남/울산/포항/경주),포항 지역,,,,,
store,원주혁신도시,,강원특별자치도 원주시 혁신로 61 (반곡동),37.323398206636,127.980833933445,운영4(서울중부/강원),원주 지역,,,,,
store,서강광흥창역,,서울특별시 마포구 서강로 69 (창전동),37.5494286610068,126.931692020954,운영5(서울서북/경기서북부),신촌 지역,,,,,
store,대전유성구청,,대전광역시 유성구 어은로 42 (어은동),36.3622356776624,127.357691795829,운영9(대전/세종/충청),대전유성/노은 지역,,,,,
store,일산덕이DT,,경기도 고양시 일산서구 탄중로 106 (덕이동),37.6919107497693,126.75697444563,운영5(서울서북/경기서북부),일산서구/야당 지역,,,,,
store,중동이마트,,경기도 부천시 원미구 석천로 188 (중동),37.5040650740343,126.763949320638,운영7(인천/경기서부),부천서부 지역,,,,,
store,신사가로수,,서울특별시 강남구 가로수길 59,37.5218897968686,127.022521249316,운영1(서울남부),압구정/신사 지역,,,,,
store,울산성남삼거리,,울산광역시 중구 젊음의2거리 33 (성남동),35.5531324890167,129.320551982419,운영12(경남/울산/포항/경주),울산북구/중구 지역,,,,,
store,사직구장,,부산광역시 동래구 사직북로 4 (사직동),35.1962862014855,129.061323501738,운영11(부산/양산),부산동래/북구 지역,,,,,
store,순천신대,,전라남도 순천시 해룡면 향매로 99,34.9335453723357,127.550265751635,운영10(광주/전라),순천/광양 지역,,,,,
store,여의도공원R,,서울특별시 영등포구 여의공원로 101 (여의도동),37.5292719570904,126.924892738645,운영3(서울서남),여의도 지역,,,,,
store,금천시흥,,서울특별시 금천구 시흥대로 164 (시흥동),37.4488833558917,126.903231141312,운영3(서울서남),가산 지역,,,,,
store,대구월성,,대구광역시 달서구 조암로 41 (월성동),35.8242686739384,128.525769818681,운영13(대구/경북/제주),대구달서 지역,,,,,
store,광주송정역,,광주광역시 광산구 상무대로205번길 6 (송정동),35.1380506213044,126.79140119248,운영10(광주/전라),광주광산/나주 지역,,,,,
store,미아,,서울특별시 성북구 동소문로 314 (하월곡동),37.6076300678804,127.029350598894,운영6(서울동북/경기북부),강북 지역,,,,,
store,동대입구역,,서울특별시 중구 장충단로 166 (장충동1가),37.5596497157976,127.006153920631,운영3(서울서남),한남/성동 지역,,,,,
store,청담스타R,,서울특별시 강남구 도산대로57길 24 (청담동),37.5252578873567,127.041837238386,운영1(서울남부),청담 지역,,,,,
store,울산진장,,울산광역시 북구 진장17길 10 (진장동),35.5619158810741,129.356439885394,운영12(경남/울산/포항/경주),울산북구/중구 지역,,,,,
store,영등포KT,,서울특별시 영등포구 영중로 119 (영등포동8가),37.5267660967496,126.905231110596,운영3(서울서남),영등포서부 지역,,,,,
store,청담영동대로,,서울특별시 강남구 영동대로 720 (청담동),37.5221876728793,127.056460869043,운영1(서울남부),청담 지역,,,,,
store,광명소하DT,,경기도 광명시 오리로 363 (소하동),37.4348885838798,126.879209084149,운영7(인천/경기서부),광명 지역,,,,,
store,대구유통단지,,대구광역시 북구 유통단지로8길 78 106호 (산격동),35.9056354397633,128.613281449425,운영13(대구/경북/제주),대구북구 지역,,,,,
store,제주에듀시티,,제주특별자치도 서귀포시 대정읍 에듀시티로 36,33.2918196619561,126.28428960077,운영13(대구/경북/제주),제주서남 지역,,,,,
store,신세계대구3F(티바나),,대구광역시 동구 동부로 149 신세계백화점 대구점 3층,35.8779406718693,128.629190024219,운영13(대구/경북/제주),대구동구 지역,,,,,
store,신세계대구8FR,,대구광역시 동구 동부로 149 신세계백화점 대구점 8층,35.8779406718693,128.629190024219,운영13(대구/경북/제주),대구동구 지역,,,,,
store,의왕포일,,경기도 의왕시 안양판교로 89 (포일동),37.3961531940532,126.984396781578,운영2(서울동남/경기동부),과천/평촌 지역,,,,,
store,순천호수공원,,전라남도 순천시 왕지2길 17 (왕지동),34.9681622592621,127.523228112019,운영10(광주/전라),순천/광양 지역,,,,,
store,공릉역,,서울특별시 노원구 동일로 1081 (공릉동),37.62637727809,127.072270436177,운영6(서울동북/경기북부),중랑 지역,,,,,
store,목동8단지,,서울특별시 양천구 목동서로 299 (신정동),37.5205726607303,126.868830851142,운영3(서울서남),목동 지역,,,,,
store,아산용화,,충청남도 아산시 어의정로 117 (용화동),36.7743916166828,127.008558038252,운영9(대전/세종/충청),아산/서산/당진 지역,,,,,
store,광명소하,,경기도 광명시 금하로 464 (소하동),37.4484546823205,126.884040346294,운영7(인천/경기서부),광명 지역,,,,,
store,홍제역,,서울특별시 서대문구 통일로 451 (홍제동),37.5886701766902,126.943849906806,운영5(서울서북/경기서북부),은평/서대문 지역,,,,,
store,광주서문대로,,광주광역시 남구 서문대로 665 (진월동),35.1190261052005,126.898622465843,운영10(광주/전라),광주남구 지역,,,,,
store,용산파크타워,,"서울특별시 용산구 서빙고로 67 (용산동5가, 파크타워)",37.5248628078572,126.970412727842,운영3(서울서남),용산 지역,,,,,
store,양산덕계DT,,경상남도 양산시 웅상대로 860 (덕계동),35.3761030523591,129.155505555932,운영11(부산/양산),양산 지역,,,,,
store,광명사거리역,,경기도 광명시 광명로 907 (광명동),37.4799200549355,126.854329282994,운영7(인천/경기서부),광명 지역,,,,,
store,천안신불당,,충청남도 천안시 서북구 불당33길 24 (불당동),36.8123896233722,127.108195683571,운영9(대전/세종/충청),천안서북 지역,,,,,
store,경희대삼거리,,서울특별시 동대문구 회기로 141 (회기동),37.5915700154784,127.052031564319,운영4(서울중부/강원),성북/동대문 지역,,,,,
store,하남미사,,경기도 하남시 미사강변북로30번길 130 (망월동),37.5696277323924,127.183309068088,운영2(서울동남/경기동부),하남/미사 지역,,,,,
store,순천연향,,전라남도 순천시 연향번영길 118 (연향동),34.9522641555105,127.518833446835,운영10(광주/전라),순천/광양 지역,,,,,
store,광주일곡,,광주광역시 북구 설죽로 518 (일곡동),35.2054756821055,126.898063567302,운영10(광주/전라),광주북구 지역,,,,,
store,창원호계DT,,경상남도 창원시 마산회원구 내서읍 호원로 315,35.2614861848779,128.522986024208,운영12(경남/울산/포항/경주),창원/마산 지역,,,,,
store,구로디지털타워,,서울특별시 구로구 디지털로32길 30 (구로동),37.4833895421043,126.896519918476,운영3(서울서남),구로 지역,,,,,
store,강남구청정문,,서울특별시 강남구 학동로 419 (청담동),37.5183061036652,127.045976501779,운영1(서울남부),청담 지역,,,,,
store,의정부민락,,경기도 의정부시 천보로 68 (민락동),37.7454800904896,127.094118959703,운영6(서울동북/경기북부),의정부/포천 지역,,,,,
store,당산대로,,서울특별시 영등포구 양평로 22 (당산동6가),37.5331572915693,126.903933458671,운영3(서울서남),영등포서부 지역,,,,,
store,설악쏘라노,,강원특별자치도 속초시 미시령로2983번길 111 (장사동),38.2101595305386,128.527388761735,운영4(서울중부/강원),속초/동해 지역,,,,,
store,강남대로신사,,서울특별시 서초구 강남대로 595 (잠원동),37.5148563751516,127.019539877754,운영1(서울남부),압구정/신사 지역,,,,,
store,분당율동공원,,경기도 성남시 분당구 새마을로175번길 4 (율동),37.3839165691527,127.150055253784,운영2(서울동남/경기동부),분당서현/수내 지역,,,,,
store,마곡GMG,,"서울특별시 강서구 마곡중앙6로 16 (마곡동) 117,118,119,120호",37.5603858920188,126.828707673278,운영3(서울서남),강서/마곡 지역,,,,,
store,자갈치역,,부산광역시 중구 구덕로 54-1 (남포동5가),35.0983988855193,129.029692425997,운영11(부산/양산),부산중구/서구 지역,,,,,
store,금련산역,,부산광역시 수영구 수영로464번길 6 (남천동),35.1471761409275,129.110540642752,운영11(부산/양산),부산수영/남구 지역,,,,,
store,이천사음DT,,경기도 이천시 경충대로 3045 (사음동),37.2990425094019,127.40801132534,운영2(서울동남/경기동부),경기/광주 지역,,,,,
store,목포하당,,전라남도 목포시 백년대로 293 (상동),34.8039310130745,126.419823226246,운영10(광주/전라),목포 지역,,,,,
store,황학사거리,,"서울특별시 성동구 왕십리로 410 (하왕십리동, 센트라스)",37.5666029325047,127.024082467223,운영6(서울동북/경기북부),왕십리 지역,,,,,
store,대구계산,,대구광역시 중구 달구벌대로415길 1 (계산동2가),35.8664665269362,128.589711098033,운영13(대구/경북/제주),대구중구 지역,,,,,
store,수영역,,부산광역시 수영구 수영로 671 (광안동),35.1657572531542,129.114477933856,운영11(부산/양산),부산수영/남구 지역,,,,,
store,경주보문,,경상북도 경주시 보문로 537 (천군동),35.8364049343826,129.285151609439,운영12(경남/울산/포항/경주),경주/포항 지역,,,,,
store,영종도운서역,,인천광역시 중구 신도시남로142번길 17 (운서동),37.4940273694717,126.492653342381,운영7(인천/경기서부),인천영종 지역,,,,,
store,부천심곡DT,,경기도 부천시 원미구 부천로 97 (심곡동),37.4929362212474,126.784402524941,운영7(인천/경기서부),부천동부 지역,,,,,
store,잠실대교남단R,,서울특별시 송파구 송파대로 570 타워 730 1층,37.5157873297768,127.099112358834,운영1(서울남부),잠실 지역,,,,,
store,답십리역,,서울특별시 동대문구 천호대로 263 (답십리동),37.5685046121538,127.051120497766,운영4(서울중부/강원),동대문 지역,,,,,
store,가양역,,서울특별시 강서구 양천로 476 (등촌동),37.5616001805127,126.853271958466,운영3(서울서남),양천 지역,,,,,
store,계룡대로DT,,충청남도 계룡시 엄사면 번영로 6,36.2884326447468,127.244331057907,운영9(대전/세종/충청),대전관저/논산 지역,,,,,
store,명륜역,,부산광역시 동래구 동래로 25,35.2124914160253,129.078379234632,운영11(부산/양산),부산금정 지역,,,,,
store,동서대DT,,부산광역시 사상구 가야대로 338 (주례동),35.1507621182409,129.009827971619,운영11(부산/양산),부산사상/사하 지역,,,,,
store,천안안서,,충청남도 천안시 동남구 안서3길 3 (안서동),36.8301318040031,127.179856633876,운영9(대전/세종/충청),천안동남 지역,,,,,
store,온천장역DT,,부산광역시 금정구 식물원로 13 (장전동),35.2239889287611,129.086547807418,운영11(부산/양산),부산금정 지역,,,,,
store,수원권선DT,,경기도 수원시 권선구 매송고색로 543 (오목천동),37.246679392748,126.96403312312,운영8(경기남부),서수원 지역,,,,,
store,공덕,,서울특별시 마포구 마포대로 130 (공덕동),37.5459729185294,126.952989325371,운영5(서울서북/경기서북부),마포 지역,,,,,
store,광주두암타운,,광주광역시 북구 삼정로 4 (두암동),35.1621240004903,126.937354728561,운영10(광주/전라),광주동구 지역,,,,,
store,문정역,,"서울특별시 송파구 송파대로 167 (문정동)테라타워 B동 137호~139호,204호",37.4846614982049,127.120933640924,운영2(서울동남/경기동부),문정/가락 지역,,,,,
store,아현역,,"서울특별시 서대문구 신촌로35길 10 (북아현동, E편한세상신촌 4단지)",37.558621696785,126.955860405605,운영5(서울서북/경기서북부),충정로 지역,,,,,
store,문정하비오,,"서울특별시 송파구 송파대로 111 (문정동, 파크하비오) 204동 104호~107호",37.4796870553794,127.124979804141,운영2(서울동남/경기동부),문정/가락 지역,,,,,
store,다대포DT,,부산광역시 사하구 다대로 493 (다대동),35.0609480465826,128.975240550468,운영11(부산/양산),부산강서/사하 지역,,,,,
store,서울고속터미널,,서울특별시 서초구 신반포로 194 (반포동),37.5064357442307,127.006834366246,운영1(서울남부),반포/이수 지역,,,,,
store,대구칠성DT,,대구광역시 북구 중앙대로 524 (칠성동2가),35.8796474606287,128.59638198262,운영13(대구/경북/제주),대구북구 지역,,,,,
store,대구중동DT,,대구광역시 수성구 수성로 243 (중동),35.8473643937876,128.612525252815,운영13(대구/경북/제주),대구수성 지역,,,,,
store,포항쌍용DT,,경상북도 포항시 남구 중흥로 122 (상도동),36.0153759738364,129.352730916398,운영12(경남/울산/포항/경주),경주/포항 지역,,,,,
store,안산상공회의소,,경기도 안산시 단원구 적금로 120 (고잔동),37.3189403538601,126.826406563782,운영7(인천/경기서부),안산 지역,,,,,
store,노원마들역,,"서울특별시 노원구 노원로 569 (상계동, 임광아파트)",37.6609665352836,127.057094734343,운영6(서울동북/경기북부),노원 지역,,,,,
store,분당이매,,경기도 성남시 분당구 이매로 15 (이매동),37.3950165891427,127.122397048861,운영2(서울동남/경기동부),판교/야탑 지역,,,,,
store,청주용담DT,,충청북도 청주시 상당구 산성로 129 (용담동),36.6343051375807,127.505180844715,운영9(대전/세종/충청),청주동부 지역,,,,,
store,충주시청DT,,충청북도 충주시 국원대로 208-1 (금릉동),36.9901438336816,127.928681274352,운영9(대전/세종/충청),충북 지역,,,,,
store,신정DT,,서울특별시 양천구 신월로 341 (신정동),37.522014544701,126.858836193806,운영3(서울서남),목동 지역,,,,,
store,독산사거리,,서울특별시 금천구 시흥대로 426 (독산동),37.4715689911066,126.89877216735,운영3(서울서남),구로 지역,,,,,
store,충주터미널,,충청북도 충주시 봉계13길 2 (봉방동),36.9807018036646,127.915187849745,운영9(대전/세종/충청),충북 지역,,,,,
store,창원마창대교,,경상남도 창원시 성산구 삼귀로 159 (귀곡동),35.1706098673463,128.597300920657,운영12(경남/울산/포항/경주),창원 지역,,,,,
store,광주흑석DT,,광주광역시 광산구 사암로 367 (산정동),35.1769692287198,126.807883850261,운영10(광주/전라),광주광산/나주 지역,,,,,
store,원주무실,,강원특별자치도 원주시 능라동길 73 (무실동),37.3331037842077,127.930262667133,운영4(서울중부/강원),원주 지역,,,,,
store,야탑터미널,,경기도 성남시 분당구 성남대로925번길 16 (야탑동),37.4130898626282,127.127281078932,운영2(서울동남/경기동부),판교/야탑 지역,,,,,
store,포천DT,,경기도 포천시 호국로 925 (선단동),37.8483732442425,127.161806277115,운영6(서울동북/경기북부),의정부/포천 지역,,,,,
store,시흥P.아울렛 3F,,경기도 시흥시 서해안로 699 (정왕동),37.3796755964231,126.736985310798,운영7(인천/경기서부),시흥 지역,,,,,
store,시흥P.아울렛 1F,,경기도 시흥시 서해안로 699 (정왕동),37.3796755964231,126.736985310798,운영7(인천/경기서부),시흥 지역,,,,,
store,일산가구단지,,경기도 고양시 일산서구 하이파크2로 67 (덕이동),37.6995607176941,126.756701146606,운영5(서울서북/경기서북부),일산서구/야당 지역,,,,,
store,전주백제대로DT,,전북특별자치도 전주시 완산구 백제대로 242 (중화산동2가),35.8146352184549,127.123434401353,운영10(광주/전라),전주남부 지역,,,,,
store,광주매곡DT,,광주광역시 북구 설죽로 339 (매곡동),35.1898031879974,126.898673415431,운영10(광주/전라),광주북구 지역,,,,,
store,공릉DT,,서울특별시 노원구 동일로 1015 (공릉동),37.6207526469417,127.074220863167,운영6(서울동북/경기북부),중랑 지역,,,,,
store,송파위례,,"서울특별시 송파구 위례광장로 230 (장지동, 위례2차아이파크)",37.478619812243,127.143533445087,운영2(서울동남/경기동부),성남/위례 지역,,,,,
store,창원역DT,,경상남도 창원시 의창구 의창대로 68 (팔용동),35.2570888581866,128.607867941204,운영12(경남/울산/포항/경주),창원 지역,,,,,
store,일산풍동DT,,경기도 고양시 일산동구 백마로 475 (풍동),37.6622134476794,126.800745061494,운영5(서울서북/경기서북부),고양/덕양 지역,,,,,
store,성수역,,서울특별시 성동구 성수이로 94 (성수동2가),37.5432313943084,127.056957190581,운영6(서울동북/경기북부),성수 지역,,,,,
store,제천DT,,충청북도 제천시 의림대로 181 (중앙로2가),37.1437510055296,128.213181984004,운영9(대전/세종/충청),충북 지역,,,,,
store,대전한남대DT,,대전광역시 대덕구 한밭대로 1122 (중리동),36.3584655871754,127.423249525722,운영9(대전/세종/충청),대전탄방/용전 지역,,,,,
store,강릉교동광장,,강원특별자치도 강릉시 교동광장로 114 (교동),37.7643298311625,128.877100010942,운영4(서울중부/강원),강릉 지역,,,,,
store,을지로국제빌딩,,서울특별시 중구 남대문로 109 (다동),37.5669858059331,126.982247152887,운영4(서울중부/강원),을지로 지역,,,,,
store,대전둔산남로,,대전광역시 서구 둔산남로 100 (탄방동),36.3487312359575,127.388648570256,운영9(대전/세종/충청),대전탄방/용전 지역,,,,,
store,국회대로,,서울특별시 영등포구 국회대로 786 (여의도동),37.5302888565757,126.919600041211,운영3(서울서남),용산 지역,,,,,
store,스타필드코엑스몰R,,서울특별시 강남구 영동대로 513 (삼성동) 코엑스 A106호,37.5118239121138,127.059159043842,운영1(서울남부),삼성 지역,,,,,
store,수원권선,,"경기도 수원시 권선구 동수원로177번길 40 (권선동, 수원아이파크시티8단지)",37.2466841722769,127.03014236609,운영8(경기남부),수원영통 지역,,,,,
store,종암DT,,서울특별시 성북구 종암로 17 (종암동),37.5918809476528,127.036104607297,운영4(서울중부/강원),성북/동대문 지역,,,,,
store,여의도KBS R,,서울특별시 영등포구 의사당대로 26 (여의도동),37.526537141271,126.918106683928,운영3(서울서남),구로 지역,,,,,
store,이수역사거리,,"서울특별시 서초구 서초대로 3-4 (방배동, 방배디오슈페리움1)",37.4860317945544,126.983083699338,운영1(서울남부),반포/이수 지역,,,,,
store,천안쌍용역,,충청남도 천안시 서북구 충무로 133 (쌍용동),36.7931635101123,127.12223215256,운영9(대전/세종/충청),천안동남 지역,,,,,
store,양산가촌,,경상남도 양산시 물금읍 야리로 25,35.3170888978329,129.001442781578,운영11(부산/양산),양산 지역,,,,,
store,연산시티타워,,부산광역시 연제구 중앙대로 1125 (연산동),35.188054516869,129.080664794725,운영11(부산/양산),부산연제/진구 지역,,,,,
store,대구테크노폴리스,,"대구광역시 달성군 유가면 테크노상업로 84 대경타워 105호, 106호, 107호",35.6932707423139,128.459138459299,운영13(대구/경북/제주),대구달서 지역,,,,,
store,국제시장,,부산광역시 중구 대청로 80 (대청동3가),35.1027820311369,129.028583153206,운영11(부산/양산),부산중구/서구 지역,,,,,
store,대전판암DT,,대전광역시 동구 옥천로 118 (판암동),36.3171732733066,127.453382500763,운영9(대전/세종/충청),대전중구/판암 지역,,,,,
store,강남R,,서울특별시 강남구 강남대로 390 (역삼동),37.4978399531903,127.028578846319,운영1(서울남부),강남/서초 지역,,,,,
store,수원KBS DT,,경기도 수원시 팔달구 권광로 265 (인계동),37.2710968065473,127.035193773887,운영8(경기남부),수원팔달 지역,,,,,
store,방화DT,,서울특별시 강서구 방화대로 375 (방화동),37.5744541532234,126.816386022206,운영3(서울서남),화곡 지역,,,,,
store,전주덕진광장DT,,전북특별자치도 전주시 덕진구 기린대로 491 (덕진동1가),35.8429157006905,127.124250488307,운영10(광주/전라),전주남부 지역,,,,,
store,송도트리플R,,인천광역시 연수구 송도과학로16번길 33-1 (송도동),37.3806957155085,126.658783691215,운영7(인천/경기서부),인천송도 지역,,,,,
store,강남오거리,,서울특별시 강남구 봉은사로2길 39 (역삼동),37.5021081976155,127.026659139548,운영1(서울남부),강남대로 지역,,,,,
store,동탄역,,경기도 화성시 동탄대로 495 (오산동),37.1979569308405,127.098271241651,운영8(경기남부),동탄동부 지역,,,,,
store,성남위례,,경기도 성남시 수정구 위례광장로 104 (창곡동),37.4730513390026,127.141262948182,운영2(서울동남/경기동부),성남/위례 지역,,,,,
store,아산탕정,,충청남도 아산시 탕정면 탕정면로 10,36.7985516703107,127.058287465349,운영9(대전/세종/충청),아산/서산/당진 지역,,,,,
store,신용산역,,"서울특별시 용산구 한강대로 95 (한강로2가, 래미안용산)",37.5288173852679,126.966653789116,운영3(서울서남),용산 지역,,,,,
store,뚝섬역,,서울특별시 성동구 아차산로 42 (성수동1가),37.5464347311743,127.049100119424,운영6(서울동북/경기북부),왕십리 지역,,,,,
store,경기양평,,경기도 양평군 양평읍 시민로 75,37.4910536630467,127.499940711089,운영6(서울동북/경기북부),다산/양평 지역,,,,,
store,청주오송,,충청북도 청주시 흥덕구 오송읍 오송생명로 222,36.6298718969642,127.333276200227,운영9(대전/세종/충청),세종/오송 지역,,,,,
store,연신내역사거리,,서울특별시 은평구 통일로 842 (불광동),37.6186902335511,126.922063807625,운영5(서울서북/경기서북부),은평/서대문 지역,,,,,
store,수영강변DT,,부산광역시 해운대구 수영강변대로 516 (반여동),35.2039338607245,129.119387342464,운영11(부산/양산),부산센텀 지역,,,,,
store,세종새롬,,세종특별자치시  새롬중앙로 64 (새롬동),36.4866406921551,127.25100078276,운영9(대전/세종/충청),세종/공주 지역,,,,,
store,천안청당,,충청남도 천안시 동남구 청수14로 102 (청당동),36.7855626581229,127.15738691592,운영9(대전/세종/충청),천안동남 지역,,,,,
store,도곡공원,,서울특별시 강남구 도곡로 205 (역삼동),37.4929198247521,127.041364616509,운영1(서울남부),도곡 지역,,,,,
store,과천DT,,경기도 과천시 중앙로 277 (중앙동),37.4393451149448,126.993837412663,운영2(서울동남/경기동부),과천/평촌 지역,,,,,
store,시흥대야,,경기도 시흥시 비둘기공원로 10 (대야동),37.4439496054333,126.790768043967,운영7(인천/경기서부),시흥 지역,,,,,
store,금정구청DT,,부산광역시 금정구 중앙대로 1730 (부곡동),35.2388135211636,129.092985849499,운영11(부산/양산),부산금정 지역,,,,,
store,신대방삼거리역,,서울특별시 동작구 상도로 102 (상도동),37.4999426964441,126.931776254273,운영3(서울서남),영등포동부 지역,,,,,
store,진해자은DT,,경상남도 창원시 진해구 진해대로 962 (자은동),35.1437457237017,128.706887418811,운영12(경남/울산/포항/경주),창원/김해 지역,,,,,
store,울산북구청DT,,울산광역시 북구 산업로 1011 (연암동),35.5833409237745,129.359092988407,운영12(경남/울산/포항/경주),울산북구/중구 지역,,,,,
store,의정부용현DT,,경기도 의정부시 시민로 468 (용현동),37.7303730871327,127.084232002976,운영6(서울동북/경기북부),의정부/포천 지역,,,,,
store,마곡나루역,,서울특별시 강서구 마곡중앙로 161-17 (마곡동),37.5680581740122,126.825960812712,운영3(서울서남),강서/마곡 지역,,,,,
store,목동역,,서울특별시 양천구 목동로 203 (신정동) 1층일부,37.5267062206829,126.86380676331,운영3(서울서남),양천 지역,,,,,
store,인천학익DT,,인천광역시 미추홀구 매소홀로 368 (학익동),37.4403954423875,126.662917065169,운영7(인천/경기서부),인천미추홀 지역,,,,,
store,종로R,,서울특별시 종로구 종로 51 (종로2가),37.5707451369668,126.983611410428,운영4(서울중부/강원),종로 지역,,,,,
store,의정부공원,,경기도 의정부시 평화로 540 (의정부동),37.7400760419587,127.047780068303,운영6(서울동북/경기북부),의정부/도봉 지역,,,,,
store,여수웅천,,전라남도 여수시 예울마루로 37-53 (웅천동),34.7462620195887,127.670873377288,운영10(광주/전라),여수 지역,,,,,
store,제주시청,,제주특별자치도 제주시 중앙로 215 (이도이동),33.5004571238047,126.529533152106,운영13(대구/경북/제주),제주동북 지역,,,,,
store,인천구월아시아드,,인천광역시 남동구 인하로 556 (구월동),37.4425941818563,126.708491369017,운영7(인천/경기서부),인천남동 지역,,,,,
store,올림픽대교북단,,서울특별시 광진구 광나루로 608 (구의동),37.5411561167848,127.095267655296,운영6(서울동북/경기북부),광진 지역,,,,,
store,홍대공항철도역,,서울특별시 마포구 양화로 178 (동교동),37.5575046128363,126.925213220295,운영5(서울서북/경기서북부),홍대/서대문 지역,,,,,
store,서산예천DT,,충청남도 서산시 나무장1길 22 (예천동),36.7718206202946,126.440182765254,운영9(대전/세종/충청),아산/서산/당진 지역,,,,,
store,이촌,,서울특별시 용산구 이촌로 276 (이촌동),37.5186438963508,126.977284598132,운영3(서울서남),영등포동부 지역,,,,,
store,배곧신도시,,경기도 시흥시 서울대학로278번길 43-13 (정왕동),37.3692262684235,126.730190993993,운영7(인천/경기서부),시흥 지역,,,,,
store,스타필드고양1FR,,경기도 고양시 덕양구 고양대로 1955 (동산동),37.6469771187284,126.89477806511,운영5(서울서북/경기서북부),고양/은평 지역,,,,,
store,스타필드고양3F,,경기도 고양시 덕양구 고양대로 1955 (동산동),37.6469771187284,126.89477806511,운영5(서울서북/경기서북부),고양/은평 지역,,,,,
store,범계역,,경기도 안양시 동안구 시민대로 180 (호계동),37.390002179095,126.950178643649,운영2(서울동남/경기동부),안양 지역,,,,,
store,동탄능동DT,,경기도 화성시 동탄지성로 201 (능동),37.2118732087224,127.053765548046,운영8(경기남부),동탄서부 지역,,,,,
store,신촌역,,서울특별시 서대문구 신촌로 73 (창천동),37.5563071297207,126.934520427944,운영5(서울서북/경기서북부),신촌 지역,,,,,
store,홍대입구역사거리R,,서울특별시 마포구 양화로 125 (서교동),37.5547493986687,126.920309389675,운영5(서울서북/경기서북부),홍대/서대문 지역,,,,,
store,해운대역,,부산광역시 해운대구 구남로 9 (우동),35.1633069847366,129.159614124407,운영11(부산/양산),부산해운대 지역,,,,,
store,제주신화월드R,,제주특별자치도 서귀포시 안덕면 신화역사로304번길 38 B1-29,33.3049726791712,126.31635202613,운영13(대구/경북/제주),제주서남 지역,,,,,
store,김포장기커낼,,"경기도 김포시 김포한강2로 41 (장기동, E편한세상 캐널시티)",37.6412701660367,126.677601659359,운영7(인천/경기서부),김포 지역,,,,,
store,서초역이화빌딩,,서울특별시 서초구 반포대로21길 3 (서초동),37.4883013085845,127.009032303082,운영1(서울남부),교대 지역,,,,,
store,안양운동장사거리DT,,경기도 안양시 동안구 관악대로 234 (비산동),37.4011959886045,126.949243762749,운영2(서울동남/경기동부),안양 지역,,,,,
store,서초우성사거리,,서울특별시 서초구 강남대로 343 (서초동),37.4935195538047,127.029241204878,운영1(서울남부),강남/서초 지역,,,,,
store,광주지산유원지입구,,광주광역시 동구 무등로 592 (산수동),35.1542645634697,126.940696482082,운영10(광주/전라),광주동구 지역,,,,,
store,광주화정DT,,광주광역시 서구 상무대로 1080,35.1522769972731,126.879955333068,운영10(광주/전라),광주남구 지역,,,,,
store,양주광사DT,,경기도 양주시 부흥로 1872 (광사동),37.7907816413712,127.072806507624,운영6(서울동북/경기북부),양주/동두천 지역,,,,,
store,구미도량DT,,경상북도 구미시 야은로 312 (도량동),36.1384026083661,128.316836681134,운영13(대구/경북/제주),구미/김천 지역,,,,,
store,대구월촌역,,대구광역시 달서구 월배로 315 (송현동),35.8240185197484,128.545199293698,운영13(대구/경북/제주),대구달서 지역,,,,,
store,춘천구봉산R,,강원특별자치도 춘천시 동면 순환대로 1154-63,37.888421230613,127.775968879165,운영4(서울중부/강원),춘천 지역,,,,,
store,독립문역,,서울특별시 종로구 송월길 155 경희궁자이 4단지 1층 팰리스애비뉴 4114~4119호,37.5717267174551,126.961625543187,운영5(서울서북/경기서북부),충정로 지역,,,,,
store,서초구청,,서울특별시 서초구 남부순환로 2557 (서초동),37.4844383587628,127.030069606033,운영1(서울남부),서초 지역,,,,,
store,대전복수,,대전광역시 서구 복수남로 28 (복수동),36.2983735200844,127.37823210329,운영9(대전/세종/충청),대전관저/논산 지역,,,,,
store,여의도IFC몰(L1)R,,서울특별시 영등포구 국제금융로 10 (여의도동)  지하1층 178호,37.5251775245928,126.924876706923,운영3(서울서남),여의도 지역,,,,,
store,정부서울청사R,,서울특별시 종로구 새문안로5가길 28 (적선동),37.574460196686,126.973597076089,운영5(서울서북/경기서북부),광화문 지역,,,,,
store,용산역써밋R,,"서울특별시 용산구 한강대로 69 (한강로2가, 용산푸르지오써밋)",37.5270404595814,126.964892234354,운영3(서울서남),용산 지역,,,,,
store,용인보라DT,,경기도 용인시 기흥구 용구대로 1877 (보라동),37.2555834276796,127.104373129135,운영8(경기남부),용인/수원 지역,,,,,
store,북수원IC DT,,경기도 수원시 장안구 경수대로 1038 (파장동),37.307842224472,126.998482372706,운영8(경기남부),서수원 지역,,,,,
store,파주야당역,,경기도 파주시 경의로 1066,37.7122942448468,126.759640419122,운영5(서울서북/경기서북부),일산서구/야당 지역,,,,,
store,마포경찰서후문,,서울특별시 마포구 마포대로 173-14 (아현동),37.55099812968,126.953625787034,운영5(서울서북/경기서북부),마포 지역,,,,,
store,구파발사거리,,서울특별시 은평구 진관3로 21 은평엘크루 101동 105-108호,37.6396025010646,126.919014455213,운영5(서울서북/경기서북부),고양/은평 지역,,,,,
store,울산도산사거리DT,,울산광역시 남구 대암로129번길 9-6 (야음동),35.5307102632367,129.329756991608,운영12(경남/울산/포항/경주),울산남구 지역,,,,,
store,마산역DT,,경상남도 창원시 마산회원구 3·15대로 715 (석전동),35.2363641070353,128.580514246686,운영12(경남/울산/포항/경주),창원/마산 지역,,,,,
store,마산해안대로DT,,경상남도 창원시 마산합포구 해안대로 383 (오동동),35.2045262796753,128.580976231449,운영12(경남/울산/포항/경주),창원/마산 지역,,,,,
store,오산갈곶DT,,"경기도 오산시 경기대로 50, B동 (갈곶동)",37.1289827436086,127.071270217946,운영8(경기남부),평택/오산 지역,,,,,
store,선릉동신빌딩R,,서울특별시 강남구 테헤란로 409 (삼성동),37.5053601174069,127.050386949115,운영1(서울남부),논현/삼성 지역,,,,,
store,여주DT,,경기도 여주시 세종로 358 (점봉동)_1,37.2662215676782,127.638247356555,운영2(서울동남/경기동부),여주/이천 지역,,,,,
store,봉은사로선정릉,,서울특별시 강남구 봉은사로 446 (삼성동),37.5113678090076,127.048516695265,운영1(서울남부),논현/삼성 지역,,,,,
store,경기광주신현DT,,경기도 광주시 태재로37,37.3598572754123,127.153177317242,운영2(서울동남/경기동부),경기/광주 지역,,,,,
store,수원천천,,경기도 수원시 장안구 덕영대로535번길 46 (천천동),37.2973273120776,126.982659005,운영8(경기남부),서수원 지역,,,,,
store,보라매공원R,,"서울특별시 동작구 보라매로5길 35 (신대방동, 파크스퀘어,보라매현대APT)",37.4920901355933,126.923508147169,운영3(서울서남),관악 지역,,,,,
store,대구월곡DT,,대구광역시 달서구 월곡로 225 (상인동),35.8148599586212,128.541024408681,운영13(대구/경북/제주),대구달서 지역,,,,,
store,울산MBC DT,,울산광역시 중구 번영로 434 (복산동),35.5615642916455,129.33224528845,운영12(경남/울산/포항/경주),울산북구/중구 지역,,,,,
store,의정부예술의전당DT,,경기도 의정부시 경의로 31 (의정부동),37.7330618855041,127.038740268175,운영6(서울동북/경기북부),의정부/도봉 지역,,,,,
store,천안시청,,충청남도 천안시 서북구 불당22대로 67 (불당동),36.8165302524167,127.106568114585,운영9(대전/세종/충청),천안서북 지역,,,,,
store,센텀파크,,"부산광역시 해운대구 센텀중앙로 145 (재송동, 더샵센텀파크1차아파트)",35.1767570378219,129.123591937256,운영11(부산/양산),부산센텀 지역,,,,,
store,송파개롱역,,서울특별시 송파구 오금로 420 (가락동),37.4969894018022,127.136277101616,운영1(서울남부),송파 지역,,,,,
store,용인상하DT,,경기도 용인시 기흥구 중부대로 771 (상하동),37.2596719437261,127.142310698144,운영8(경기남부),용인기흥 지역,,,,,
store,방배다이치빌딩,,서울특별시 서초구 방배로 114 (방배동),37.4843393154443,126.996090968767,운영1(서울남부),교대 지역,,,,,
store,전주혁신도시,,전북특별자치도 전주시 덕진구 기지로 68 (중동),35.8381508593617,127.059331205624,운영10(광주/전라),전주서부/군산 지역,,,,,
store,전주송천DT,,전북특별자치도 전주시 덕진구 송천중앙로 228 (송천동2가),35.8674262604092,127.121932746623,운영10(광주/전라),전주북부/익산 지역,,,,,
store,전주평화DT,,전북특별자치도 전주시 완산구 모악로 4696 (평화동2가),35.7884188492029,127.131081455114,운영10(광주/전라),전주남부 지역,,,,,
store,일산가로수길,,경기도 고양시 일산서구 주엽로 80 (대화동),37.6660625103382,126.756435827812,운영5(서울서북/경기서북부),일산서구/야당 지역,,,,,
store,노량진역,,서울특별시 동작구 노량진로 134 (노량진동),37.5133653695495,126.940880232779,운영3(서울서남),영등포동부 지역,,,,,
store,남양산IC DT,,경상남도 양산시 동면 양산대로 532,35.3199599930758,129.030411781913,운영11(부산/양산),양산 지역,,,,,
store,강동암사DT,,서울특별시 강동구 고덕로 43 (암사동),37.5551043012407,127.130014966918,운영2(서울동남/경기동부),강동/하남 지역,,,,,
store,이태원역,,서울특별시 용산구 이태원로 188 (이태원동),37.5343119597361,126.994803414914,운영3(서울서남),한남/성동 지역,,,,,
store,마곡사이언스타워R,,서울특별시 강서구 마곡동로 62 (마곡동),37.5605537644679,126.833890184435,운영3(서울서남),강서/마곡 지역,,,,,
store,명지국제신도시,,부산광역시 강서구 명지국제5로 42 (명지동),35.0976643142014,128.920247351245,운영11(부산/양산),부산강서/사하 지역,,,,,
store,합정폴리스R,,"서울특별시 마포구 양화로 45 (서교동, 메세나폴리스)",37.5515008030203,126.91395024016,운영5(서울서북/경기서북부),합정/상암 지역,,,,,
store,수서역R,,서울특별시 강남구 광평로 281 (수서동),37.4881247193412,127.103147850146,운영2(서울동남/경기동부),문정/가락 지역,,,,,
store,김해구산DT,,경상남도 김해시 김해대로 1918 (구산동),35.2553046917649,128.866403490973,운영12(경남/울산/포항/경주),김해 지역,,,,,
store,광안수변공원,,부산광역시 수영구 민락수변로 29 (민락동),35.1532353292792,129.124656209034,운영11(부산/양산),부산수영/남구 지역,,,,,
store,광주봉선로,,광주광역시 남구 제석로 104 (봉선동),35.1237104491106,126.907462351856,운영10(광주/전라),광주남구 지역,,,,,
store,광화문우체국,,서울특별시 종로구 종로 6 (서린동),37.5698416253417,126.978096062325,운영5(서울서북/경기서북부),광화문 지역,,,,,
store,대전탄방역,,대전광역시 서구 문정로2번길 95 (탄방동),36.3432876984032,127.385472873427,운영9(대전/세종/충청),대전탄방/용전 지역,,,,,
store,광주신안DT,,광주광역시 북구 서암대로 93 (신안동),35.1715855465606,126.894792720593,운영10(광주/전라),광주동구 지역,,,,,
store,광주산정DT,,광주광역시 광산구 용아로 342 (산정동),35.1735783644164,126.80419086195,운영10(광주/전라),광주광산/나주 지역,,,,,
store,이천증포DT,,경기도 이천시 이섭대천로 1445 (증포동),37.2968406157827,127.45706234697,운영2(서울동남/경기동부),경기/광주 지역,,,,,
store,안산고잔센트럴타워,,경기도 안산시 단원구 고잔로 72 (고잔동),37.3189531318832,126.834249957013,운영7(인천/경기서부),안산 지역,,,,,
store,센트럴F1,,서울특별시 서초구 신반포로 176 (반포동),37.5039351769908,127.002413006799,운영1(서울남부),반포/이수 지역,,,,,
store,동탄카림,,"경기도 화성시 동탄대로시범길 134 (청계동, 시범 반도유보라 아이비파크4.0)",37.1990328379764,127.113063831502,운영8(경기남부),동탄동부 지역,,,,,
store,일산애니골DT,,경기도 고양시 일산동구 무궁화로 294 (풍동),37.6744085653664,126.792852402459,운영5(서울서북/경기서북부),고양/덕양 지역,,,,,
store,서면로R,,부산광역시 부산진구 서면로 49-1 (부전동),35.1552474300523,129.057532370274,운영11(부산/양산),부산서면/진구 지역,,,,,
store,원주명륜DT,,강원특별자치도 원주시 남원로 588 (명륜동),37.3360349593325,127.949850705801,운영4(서울중부/강원),원주 지역,,,,,
store,판교아비뉴프랑R,,"경기도 성남시 분당구 동판교로177번길 25 (삼평동, 판교 호반 써밋 플레이스)",37.3973207561987,127.11356226927,운영2(서울동남/경기동부),판교/정자 지역,,,,,
store,양재강남빌딩R,,서울특별시 강남구 남부순환로 2621 (도곡동),37.4852652574455,127.036620497399,운영1(서울남부),서초 지역,,,,,
store,용호동W스퀘어,,"부산광역시 남구 분포로 145 (용호동) 더블유스퀘어동 1019호,1020호,1021호,2011호 2012호",35.1342294576999,129.111216765972,운영11(부산/양산),부산남구/동구 지역,,,,,
store,강남교보타워R,,서울특별시 서초구 강남대로 465 (서초동),37.5037560541254,127.024109539913,운영1(서울남부),강남대로 지역,,,,,
store,인천동춘DT,,인천광역시 연수구 앵고개로 171 (동춘동),37.4125218753188,126.664468661864,운영7(인천/경기서부),인천남동 지역,,,,,
store,동래역,,부산광역시 동래구 충렬대로181번길 42 (명륜동),35.2056187592235,129.080163966075,운영11(부산/양산),부산동래/북구 지역,,,,,
store,대구광장,,대구광역시 달서구 달구벌대로 1710 (두류동),35.8557246689181,128.552813712298,운영13(대구/경북/제주),대구남구 지역,,,,,
store,안성석정DT,,경기도 안성시 중앙로 308 (석정동),37.0104732945341,127.262158859026,운영8(경기남부),평택/안성 지역,,,,,
store,구미상모DT,,경상북도 구미시 금오대로 439 (상모동),36.082301537811,128.356430264875,운영13(대구/경북/제주),구미/김천 지역,,,,,
store,문정법원로R,,서울특별시 송파구 송파대로 201 (문정동),37.4877387829749,127.120685887596,운영2(서울동남/경기동부),문정/가락 지역,,,,,
store,잠실시그마타워,,서울특별시 송파구 올림픽로 289 (신천동),37.5146152773177,127.102522142353,운영1(서울남부),잠실 지역,,,,,
store,대구수성도서관DT,,대구광역시 수성구 화랑로 112 (만촌동),35.8727573407306,128.638997857097,운영13(대구/경북/제주),대구수성/동구 지역,,,,,
store,수원호매실,,"경기도 수원시 권선구 서수원로577번길 305 (금곡동, 수원모아미래도센트럴타운2단지)",37.276199115847,126.939918264282,운영8(경기남부),서수원 지역,,,,,
store,청주사직DT,,충청북도 청주시 서원구 사직대로 302 (사직동),36.6359080415849,127.481153469243,운영9(대전/세종/충청),청주동부 지역,,,,,
store,광명역,,"경기도 광명시 양지로 16 (일직동, 광명역써밋플레이스)",37.4171034624346,126.880947375247,운영7(인천/경기서부),광명 지역,,,,,
store,청주용암DT,,충청북도 청주시 상당구 1순환로 1243 (용암동),36.6075464883789,127.503937178707,운영9(대전/세종/충청),청주서부 지역,,,,,
store,죽전단국대,,경기도 용인시 수지구 죽전로168번길 18 (죽전동),37.3244138315708,127.12489064109,운영8(경기남부),용인수지 지역,,,,,
store,공주동학사DT,,충청남도 공주시 반포면 동학사1로 114,36.3635199123433,127.253775000222,운영9(대전/세종/충청),대전유성/노은 지역,,,,,
store,광주운남DT,,광주광역시 광산구 임방울대로 156 (운남동),35.1751695566062,126.81802394885,운영10(광주/전라),광주광산/나주 지역,,,,,
store,송파나루역DT,,서울특별시 송파구 오금로 142 (송파동),37.5108292192908,127.110268903268,운영1(서울남부),잠실 지역,,,,,
store,압구정R,,서울특별시 강남구 언주로 861 (신사동),37.5273990937168,127.033113547922,운영1(서울남부),압구정/신사 지역,,,,,
store,우장산역,,서울특별시 강서구 강서로 267 (내발산동),37.5496000614643,126.835941270275,운영3(서울서남),화곡 지역,,,,,
store,파주금촌역,,경기도 파주시 문화로 109 (금촌동),37.763896224128,126.774242997683,운영5(서울서북/경기서북부),파주 지역,,,,,
store,대전정부청사역,,대전광역시 서구 한밭대로 755 (둔산동),36.3581736508949,127.382504310598,운영9(대전/세종/충청),대전유성/보령 지역,,,,,
store,세종다정DT,,세종특별자치시 다정북로 223 (다정동),36.4948618876583,127.255234915254,운영9(대전/세종/충청),세종/공주 지역,,,,,
store,해운대동백,,"부산광역시 해운대구 해운대해변로 197 (우동, 해운대경동제이드아파트)",35.158802549379,129.152836637292,운영11(부산/양산),부산해운대 지역,,,,,
store,당진시곡DT,,충청남도 당진시 서해로 6283 (시곡동),36.9028499660402,126.684192799775,운영9(대전/세종/충청),아산/서산/당진 지역,,,,,
store,등촌역,,서울특별시 양천구 공항대로 566 (목동) 1층 2층,37.5489605239168,126.868067060108,운영3(서울서남),양천 지역,,,,,
store,대전건양대병원,,대전광역시 서구 관저동로 170 (관저동)1층,36.3073011518925,127.341157141043,운영9(대전/세종/충청),대전관저/논산 지역,,,,,
store,사상주례DT,,부산광역시 사상구 백양대로 520 (주례동),35.1548634734354,128.996132709156,운영11(부산/양산),부산사상/사하 지역,,,,,
store,대구죽전역,,대구광역시 달서구 와룡로 169,35.8487323095597,128.536389073619,운영13(대구/경북/제주),대구달서/안동 지역,,,,,
store,종로평창동,,서울특별시 종로구 평창12길 3 (평창동),37.606177671919,126.96722438064,운영5(서울서북/경기서북부),광화문/종로 지역,,,,,
store,아차산역,,서울특별시 광진구 천호대로 676 (구의동),37.5505911469287,127.08993019403,운영6(서울동북/경기북부),광진 지역,,,,,
store,산본사거리,,경기도 군포시 고산로701,37.3724596947291,126.935798140708,운영2(서울동남/경기동부),산본/안양 지역,,,,,
store,가산에스케이,,"서울특별시 금천구 가산디지털1로 171 (가산동), SK V1센터 1층",37.4808318534376,126.880662051163,운영3(서울서남),가산 지역,,,,,
store,구리갈매역,,"경기도 구리시 경춘북로 252 (갈매동, 갈매역아이파크)",37.6338125904837,127.118322701737,운영6(서울동북/경기북부),구리/별내 지역,,,,,
store,남양주연평DT,,경기도 남양주시 진접읍 해밀예당1로 27,37.7115529280981,127.185534151513,운영6(서울동북/경기북부),남양주/가평 지역,,,,,
store,화성향남,,경기도 화성시 향남읍 발안로 111,37.1316853522091,126.922770999747,운영8(경기남부),화성 지역,,,,,
store,하남미사DT,,경기도 하남시 미사강변남로 35 (망월동),37.5599726775773,127.185782729357,운영2(서울동남/경기동부),하남/미사 지역,,,,,
store,안성공도DT,,경기도 안성시 공도읍 서동대로 4489,37.0094447750124,127.200767608107,운영8(경기남부),평택/안성 지역,,,,,
store,평택서정DT,,경기도 평택시 경기대로 1353 (서정동),37.0659835144976,127.063540663425,운영8(경기남부),평택/오산 지역,,,,,
store,천안서부대로DT,,충청남도 천안시 서북구 서부대로 405 (쌍용동),36.8036802750752,127.126989561306,운영9(대전/세종/충청),천안동남 지역,,,,,
store,삼성역섬유센터R,,서울특별시 강남구 테헤란로 518 (대치동),37.5075910839105,127.060579419429,운영1(서울남부),삼성 지역,,,,,
store,영통R,,경기도 수원시 영통구 덕영대로 1566 (영통동),37.2451332601807,127.061795805742,운영8(경기남부),수원영통 지역,,,,,
store,목동행복한,,서울특별시 양천구 목동동로 309 (목동),37.5292109947037,126.875984665042,운영3(서울서남),목동 지역,,,,,
store,대구그랜드호텔R,,대구광역시 수성구 동대구로 305 (범어동),35.8576603857473,128.62515087238,운영13(대구/경북/제주),대구수성/동구 지역,,,,,
store,강동구청DT,,서울특별시 강동구 성내로 32 (성내동),37.5291904009702,127.123806229957,운영2(서울동남/경기동부),강동 지역,,,,,
store,광교엘포트R,,경기도 수원시 영통구 광교중앙로 145 (이의동),37.2870876096225,127.057781422092,운영8(경기남부),수원광교 지역,,,,,
store,마포용강동,,서울특별시 마포구 토정로 295 (용강동),37.5412195915618,126.94219626684,운영5(서울서북/경기서북부),마포 지역,,,,,
store,어린이대공원역,,서울특별시 광진구 능동로 243 (군자동),37.5519395891703,127.076354480595,운영6(서울동북/경기북부),광진 지역,,,,,
store,천안불당DT,,충청남도 천안시 서북구 불당34길 4 (불당동),36.8054170696768,127.106125652689,운영9(대전/세종/충청),천안서북 지역,,,,,
store,경인교대입구역DT,,인천광역시 계양구 계양대로 131 (작전동),37.5355338691927,126.722195680064,운영7(인천/경기서부),인천서구 지역,,,,,
store,이수자이,,서울특별시 동작구 사당로 300 (사당동 이수자이),37.4844359490926,126.980308511151,운영1(서울남부),반포/이수 지역,,,,,
store,상계초교사거리,,서울특별시 노원구 노원로 449 (상계동),37.6566694543257,127.066441585083,운영6(서울동북/경기북부),노원 지역,,,,,
store,광명하안대로,,경기도 광명시 범안로 1036 (하안동),37.4614459726519,126.878345542522,운영7(인천/경기서부),광명 지역,,,,,
store,원주반곡DT,,강원특별자치도 원주시 동부순환로 37 (반곡동),37.3198211817029,127.971723570906,운영4(서울중부/강원),원주 지역,,,,,
store,검단사거리역,,인천광역시 서구 완정로 172 (마전동),37.6026004980209,126.657426885404,운영7(인천/경기서부),김포/인천검단 지역,,,,,
store,울산대공원,,울산광역시 남구 대공원입구로 4 (옥동),35.5321897051273,129.293947211495,운영12(경남/울산/포항/경주),울산남구 지역,,,,,
store,부평삼거리역DT,,인천광역시 남동구 경인로 750 (간석동),37.4765935160991,126.710184728144,운영7(인천/경기서부),인천부평/계양 지역,,,,,
store,숭례문북창,,서울특별시 중구 세종대로12길 12 (남대문로4가),37.5616267501713,126.976921027876,운영4(서울중부/강원),소공 지역,,,,,
store,국립중앙의료원,,서울특별시 중구 을지로 251 (을지로6가),37.5665548575457,127.006251379421,운영4(서울중부/강원),을지로 지역,,,,,
store,양주덕정역DT,,경기도 양주시 독바위로 35 (덕정동),37.838255345684,127.062984361049,운영6(서울동북/경기북부),양주/동두천 지역,,,,,
store,국기원사거리,,서울특별시 강남구 테헤란로 125 (역삼동),37.499603693833,127.031676800566,운영1(서울남부),역삼 지역,,,,,
store,익산모현,,전북특별자치도 익산시 선화로 106 (모현동1가),35.948499587606,126.942494913176,운영10(광주/전라),전주북부/익산 지역,,,,,
store,시흥대야DT,,경기도 시흥시 뱀내장터로 27 (대야동),37.441702812009,126.787721222152,운영7(인천/경기서부),시흥 지역,,,,,
store,논현역사거리,,서울특별시 강남구 강남대로 538 (논현동),37.5102202255601,127.022269137849,운영1(서울남부),강남대로 지역,,,,,
store,혜화역,,서울특별시 종로구 대학로12길 4 (동숭동)1~2층,37.58204391787134,127.00194500977392,운영4(서울중부/강원),대학로 지역,,,,,
store,충북증평,,충청북도 증평군 증평읍 광장로 40,36.7890510917061,127.578901603357,운영9(대전/세종/충청),충북 지역,,,,,
store,의정부신곡DT,,경기도 의정부시 회룡로 269 (신곡동),37.7268720274008,127.06398704436,운영6(서울동북/경기북부),의정부/포천 지역,,,,,
store,광교역,,경기도 수원시 영통구 대학로 47 (이의동),37.3005172719007,127.044027900801,운영8(경기남부),수원광교 지역,,,,,
store,여수해양공원,,전라남도 여수시 이순신광장로 192 (종화동),34.7383404694239,127.744228418302,운영10(광주/전라),여수 지역,,,,,
store,양산증산역,,경상남도 양산시 물금읍 증산역로 177,35.3098759435218,129.009381113145,운영11(부산/양산),양산 지역,,,,,
store,동국대일산병원,,경기도 고양시 일산동구 동국로 27 (식사동),37.6764354232648,126.805564482481,운영5(서울서북/경기서북부),고양/덕양 지역,,,,,
store,인천스퀘어원,,인천광역시 연수구 청능대로 210 (동춘동),37.4059981630337,126.683622060373,운영7(인천/경기서부),인천미추홀 지역,,,,,
store,명일역,,서울특별시 강동구 양재대로 1647 (명일동),37.5525605905813,127.143782864746,운영2(서울동남/경기동부),강동/하남 지역,,,,,
store,광주신세계DT,,광주광역시 서구 죽봉대로 33 (화정동),35.1562492274597,126.882744776474,운영10(광주/전라),광주남구 지역,,,,,
store,강릉송정DT,,강원특별자치도 강릉시 경강로 2400 (송정동),37.7718654477202,128.922966003062,운영4(서울중부/강원),강릉 지역,,,,,
store,대한상공회의소R,,서울특별시 중구 세종대로 39 (남대문로4가) 1층,37.5607136539523,126.973775321516,운영4(서울중부/강원),소공 지역,,,,,
store,광주상무DT,,광주광역시 서구 상무대로 847 (쌍촌동),35.1499518377728,126.854825903965,운영10(광주/전라),광주서구 지역,,,,,
store,용인죽전,,"경기도 용인시 수지구 용구대로 2750 (죽전동, 죽전 효성해링턴 플레이스)",37.3312486466949,127.109477369629,운영8(경기남부),용인수지 지역,,,,,
store,용인김량장DT,,경기도 용인시 처인구 백옥대로 1174 (김량장동),37.2395814133257,127.210563030926,운영8(경기남부),용인처인 지역,,,,,
store,전북대병원DT,,전북특별자치도 전주시 덕진구 백제대로 616 (금암동),35.8415918953913,127.136973932862,운영10(광주/전라),전주남부 지역,,,,,
store,대구들안길DT,,대구광역시 수성구 들안로 85 (상동),35.837468601082,128.616445894324,운영13(대구/경북/제주),대구수성 지역,,,,,
store,국립대구박물관DT,,대구광역시 수성구 청호로 318 (황금동),35.8456517325396,128.639129915845,운영13(대구/경북/제주),대구수성 지역,,,,,
store,광주주월DT,,광주광역시 남구 회재로 1256 (주월동),35.1341131851806,126.898140959121,운영10(광주/전라),광주남구 지역,,,,,
store,영등포역,,서울특별시 영등포구 경인로 870 (영등포동1가),37.5169829500086,126.90928305399,운영3(서울서남),영등포동부 지역,,,,,
store,수원법조타운,,경기도 수원시 영통구 광교중앙로248번길 7-2 (하동) A동 1층,37.2910333582533,127.066670743351,운영8(경기남부),수원광교 지역,,,,,
store,천안두정역DT,,충청남도 천안시 서북구 두정로 264 (두정동),36.8328701270167,127.146324012602,운영9(대전/세종/충청),천안서북 지역,,,,,
store,양주송추DT,,경기도 양주시 장흥면 호국로 528,37.7175866753817,126.973123990245,운영6(서울동북/경기북부),의정부/도봉 지역,,,,,
store,아산배방,,충청남도 아산시 배방읍 배방로 22,36.7748453170047,127.053909762036,운영9(대전/세종/충청),아산/서산/당진 지역,,,,,
store,스타필드위례1FR,,경기도 하남시 위례대로 200 (학암동),37.4801356884837,127.148404124838,운영2(서울동남/경기동부),성남/위례 지역,,,,,
store,평택대DT,,경기도 평택시 서동대로 3847 (용이동),36.9933588111618,127.134668569237,운영8(경기남부),평택/안성 지역,,,,,
store,파주야당DT,,경기도 파주시 경의로 966 (야당동),37.7034411548412,126.75966197898,운영5(서울서북/경기서북부),일산서구/야당 지역,,,,,
store,발산역사거리,,서울특별시 강서구 공항대로 248 (마곡동),37.5584038640061,126.834893863585,운영3(서울서남),화곡 지역,,,,,
store,대치재경빌딩,,서울특별시 강남구 남부순환로 2947 (대치동),37.4945603877761,127.062632515245,운영1(서울남부),대치/선릉 지역,,,,,
store,부산역라마다,,부산광역시 동구 중앙대로196번길 10 (초량동),35.1142438366245,129.040324777113,운영11(부산/양산),부산남구/동구 지역,,,,,
store,금정남산동DT,,부산광역시 금정구 중앙대로 1989 (남산동),35.262146679655,129.091312246261,운영11(부산/양산),부산금정 지역,,,,,
store,용인보정DT,,경기도 용인시 기흥구 용구대로2469번길 165 (보정동),37.3214782375645,127.104160922596,운영8(경기남부),용인기흥 지역,,,,,
store,제주일도DT,,제주특별자치도 제주시 동광로 130 (일도이동),33.5072920513128,126.540816616021,운영13(대구/경북/제주),제주동북 지역,,,,,
store,제주외도DT,,제주특별자치도 제주시 일주서로 7300 (외도일동),33.4923276809797,126.427070848399,운영13(대구/경북/제주),제주서북 지역,,,,,
store,명지강변DT,,부산광역시 강서구 르노삼성대로 620 (명지동),35.1026445196082,128.929483769125,운영11(부산/양산),부산강서/사하 지역,,,,,
store,경남사천DT,,경상남도 사천시 사천읍 사천대로 1844,35.0810443633742,128.083591058626,운영12(경남/울산/포항/경주),진주/사천 지역,,,,,
store,불광역,,서울특별시 은평구 통일로 715 (대조동),37.609413947696,126.930308376671,운영5(서울서북/경기서북부),은평/서대문 지역,,,,,
store,제주도남DT,,제주특별자치도 제주시 연북로 394 (도남동),33.4803326008708,126.523479276392,운영13(대구/경북/제주),제주동북 지역,,,,,
store,수원연무DT,,경기도 수원시 장안구 창룡대로 171 (연무동),37.2922308969361,127.028742909619,운영8(경기남부),수원광교 지역,,,,,
store,충남보령DT,,충청남도 보령시 대해로 101 (궁촌동),36.3410374884898,126.589215333576,운영9(대전/세종/충청),대전유성/보령 지역,,,,,
store,기흥역AK R,,"경기도 용인시 기흥구 기흥역로 63 (구갈동, 기흥역 힐스테이트)",37.274842769629,127.118778508807,운영8(경기남부),용인기흥 지역,,,,,
store,인천강화DT,,인천광역시 강화군 강화읍 강화대로 343,37.7426856612146,126.491629341428,운영7(인천/경기서부),김포 지역,,,,,
store,마산회원DT,,경상남도 창원시 마산회원구 3·15대로 518 (회원동),35.2205844249723,128.574483135819,운영12(경남/울산/포항/경주),창원/마산 지역,,,,,
store,천안신부,,충청남도 천안시 동남구 만남로 43 (신부동) 아라리오갤러리,36.8193302097389,127.15784651678,운영9(대전/세종/충청),천안동남 지역,,,,,
store,목포터미널DT,,전라남도 목포시 영산로 495 (상동),34.8099240361915,126.416825392438,운영10(광주/전라),목포 지역,,,,,
store,제주삼화DT,,제주특별자치도 제주시 연삼로 884 (도련일동),33.5117385888716,126.580441578127,운영13(대구/경북/제주),제주동북 지역,,,,,
store,풍무역DT,,경기도 김포시 김포대로 657 (풍무동),37.6103627806489,126.737495292888,운영7(인천/경기서부),김포/인천검단 지역,,,,,
store,건국대,,서울특별시 광진구 능동로 117 (화양동),37.5415995620032,127.071136774445,운영6(서울동북/경기북부),성수 지역,,,,,
store,포항죽도DT,,경상북도 포항시 북구 새천년대로 486 699-1 에스오일,36.0183753441918,129.347995587381,운영12(경남/울산/포항/경주),포항 지역,,,,,
store,군산나운DT,,전북특별자치도 군산시 하나운안2길 4 (나운동),35.9627967334599,126.695466663067,운영10(광주/전라),전주서부/군산 지역,,,,,
store,광주월산DT,,광주광역시 남구 대남대로 386 (월산동),35.1455830673016,126.890846659838,운영10(광주/전라),광주남구 지역,,,,,
store,인천청라센트럴,,"인천광역시 서구 청라커낼로 300 (청라동, 청라센트럴에일린의뜰)",37.5355843959693,126.645399759821,운영7(인천/경기서부),인천서구 지역,,,,,
store,판교알파돔타워,,경기도 성남시 분당구 판교역로 152 (백현동),37.394245407468,127.110306812433,운영2(서울동남/경기동부),판교/정자 지역,,,,,
store,풍무사거리DT,,경기도 김포시 풍무로 137,37.6078263035539,126.722790122328,운영7(인천/경기서부),김포/인천검단 지역,,,,,
store,관악서울대입구R,,서울특별시 관악구 관악로 158 (봉천동),37.4793104352293,126.952808280216,운영3(서울서남),관악 지역,,,,,
store,평택안중DT,,경기도 평택시 안중읍 서동대로 1459,36.9908690387393,126.913393184132,운영8(경기남부),평택 지역,,,,,
store,지행역,,경기도 동두천시 지행로 55 (지행동),37.8926929292313,127.053469466627,운영6(서울동북/경기북부),양주/동두천 지역,,,,,
store,김포석모DT,,"경기도 김포시 양촌읍 김포한강4로301 1,2층",37.6509734802836,126.649890488427,운영7(인천/경기서부),김포 지역,,,,,
store,더양평DT,,경기도 양평군 양평읍 양근로 76,37.4970294712052,127.481696098535,운영6(서울동북/경기북부),다산/양평 지역,,,,,
store,인천송도,,"인천광역시 연수구 컨벤시아대로 55 (송도동, 송도이안)",37.396611332624,126.651896915729,운영7(인천/경기서부),인천송도 지역,,,,,
store,북오산IC DT,,경기도 오산시 문시로 109-2 (외삼미동),37.1897591710072,127.058835461054,운영8(경기남부),평택/오산 지역,,,,,
store,수원경수인계DT,,경기도 수원시 팔달구 경수대로 499 (인계동),37.2704379187363,127.027548767585,운영8(경기남부),수원팔달 지역,,,,,
store,광주지산DT,,광주광역시 동구 필문대로 240 (동명동),35.149806292992,126.929032766869,운영10(광주/전라),광주동구 지역,,,,,
store,용인에버랜드,,경기도 용인시 처인구 포곡읍 에버랜드로 199,37.294066695953,127.202128029885,운영8(경기남부),용인처인 지역,,,,,
store,영종하늘도시,,인천광역시 중구 하늘중앙로195번길 15 (중산동),37.4897039449091,126.561339659232,운영7(인천/경기서부),인천영종 지역,,,,,
store,계명대동산병원,,대구광역시 달서구 달구벌대로 1035 (신당동),35.8539564853872,128.480225817638,운영13(대구/경북/제주),대구달서/안동 지역,,,,,
store,광주효천DT,,광주광역시 남구 임암길 232 (임암동),35.0999794570752,126.871220510239,운영10(광주/전라),광주남구 지역,,,,,
store,연합뉴스,,서울특별시 종로구 율곡로2길 25 (수송동),37.5743642341595,126.98051726008,운영5(서울서북/경기서북부),광화문/종로 지역,,,,,
store,샛강역,,서울특별시 영등포구 여의대방로 376 (여의도동),37.5181886056247,126.931354574177,운영3(서울서남),영등포동부 지역,,,,,
store,하남덕풍,,경기도 하남시 덕풍동로 123 (덕풍동),37.55224724781,127.209173441765,운영2(서울동남/경기동부),하남/미사 지역,,,,,
store,대전터미널DT,,대전광역시 동구 동서대로 1658 (성남동),36.3478493746249,127.434235004614,운영9(대전/세종/충청),대전탄방/용전 지역,,,,,
store,대구앞산DT,,대구광역시 남구 현충로 32 (대명동),35.8355813589303,128.579913902667,운영13(대구/경북/제주),대구남구 지역,,,,,
store,대구영대병원역DT,,대구광역시 남구 봉덕로 25 (봉덕동),35.8454370046059,128.593576647785,운영13(대구/경북/제주),대구남구 지역,,,,,
store,월계트레이더스,,서울특별시 노원구 마들로3길 17 (월계동),37.6279218042794,127.061352796451,운영6(서울동북/경기북부),노원 지역,,,,,
store,아산방축DT,,충청남도 아산시 온천대로 1392 (방축동),36.7837216812238,126.992799379813,운영9(대전/세종/충청),아산/서산/당진 지역,,,,,
store,충주호암DT,,충청북도 충주시 중원대로 3245 (호암동),36.9590045929482,127.923669483509,운영9(대전/세종/충청),충북 지역,,,,,
store,화정호국로,,경기도 고양시 덕양구 화수로14번길 72 (화정동),37.641774991065,126.829581042661,운영5(서울서북/경기서북부),고양/덕양 지역,,,,,
store,상암YTN,,서울특별시 마포구 상암산로 76 (상암동),37.5791943482019,126.892314544858,운영5(서울서북/경기서북부),합정/상암 지역,,,,,
store,화명강변DT,,부산광역시 북구 금곡대로77 (덕천동),35.2168532230702,129.004733677474,운영11(부산/양산),부산동래/북구 지역,,,,,
store,제물포역DT,,인천광역시 미추홀구 경인로 103 (숭의동),37.4664733158708,126.654112886666,운영7(인천/경기서부),인천제물포 지역,,,,,
store,남양주삼패,,경기도 남양주시 경강로 384 (삼패동)1-2층 옥탑,37.5912531299684,127.203569447616,운영6(서울동북/경기북부),다산/양평 지역,,,,,
store,강릉강문해변,,강원특별자치도 강릉시 창해로350번길 3 (강문동),37.7947578903572,128.918537814108,운영4(서울중부/강원),강릉 지역,,,,,
store,광주선운DT,,광주광역시 광산구 선운로 20번길 63,35.146956816626,126.777536035978,운영10(광주/전라),광주광산/나주 지역,,,,,
store,남양주화도DT,,경기도 남양주시 화도읍 수레로 1137 1~2층,37.6389184311211,127.30358092769,운영6(서울동북/경기북부),남양주/가평 지역,,,,,
store,기장역DT,,부산광역시 기장군 기장읍 기장대로 527,35.2421748145909,129.220225969412,운영11(부산/양산),부산해운대/기장 지역,,,,,
store,경희궁로,,서울특별시 종로구 새문안로3길 15 (당주동),37.5717056482532,126.972300686793,운영5(서울서북/경기서북부),광화문 지역,,,,,
store,평택비전,,경기도 평택시 비전5로 20-24 (비전동),36.9988746499235,127.11416658254,운영8(경기남부),평택/안성 지역,,,,,
store,역삼아레나빌딩,,서울특별시 강남구 언주로 425 (역삼동),37.5011172075922,127.043058269829,운영1(서울남부),역삼 지역,,,,,
store,경기광주쌍령DT,,경기도 광주시 경충대로 1445 (쌍령동),37.3987589569046,127.273258907642,운영2(서울동남/경기동부),경기/광주 지역,,,,,
store,철산역,,경기도 광명시 철산로 15 (철산동),37.4764492475459,126.867707486262,운영7(인천/경기서부),광명 지역,,,,,
store,남한산성입구역,,경기도 성남시 중원구 산성대로426번길 2 (금광동),37.4496659797432,127.159442421522,운영2(서울동남/경기동부),성남/위례 지역,,,,,
store,나주혁신DT,,전라남도 나주시 빛가람로 838 (빛가람동),35.0213160649876,126.803395844867,운영10(광주/전라),광주광산/나주 지역,,,,,
store,여수학동DT,,전라남도 여수시 도원로 271 (학동),34.7614334885004,127.661060914301,운영10(광주/전라),여수 지역,,,,,
store,서면중앙대로R,,부산광역시 부산진구 중앙대로 672 (부전동) 1층 2층,35.153006221653,129.059606320437,운영11(부산/양산),부산서면/진구 지역,,,,,
store,경기광주송정DT,,경기도 광주시 경안천로 118 (송정동),37.416282439147,127.27257700188,운영2(서울동남/경기동부),경기/광주 지역,,,,,
store,경산임당역DT,,경상북도 경산시 대학로 208 (계양동),35.8338168122772,128.745715278929,운영13(대구/경북/제주),대구경산 지역,,,,,
store,울산신정DT,,울산광역시 남구 문수로 435 (신정동),35.5336334729576,129.301223375912,운영12(경남/울산/포항/경주),울산남구 지역,,,,,
store,미사역효성,,경기도 하남시 아리수로 570 (망월동),37.566815029598,127.19041098513,운영2(서울동남/경기동부),하남/미사 지역,,,,,
store,밀양DT,,경상남도 밀양시 밀양대로 1792 (삼문동),35.485293471091,128.751153570851,운영12(경남/울산/포항/경주),김해 지역,,,,,
store,화성봉담DT,,경기도 화성시 효행로 219 (기안동),37.2283417317984,126.971584473741,운영8(경기남부),화성 지역,,,,,
store,창원상남로,,경상남도 창원시 성산구 상남로 88 (상남동),35.2212583595844,128.681237121441,운영12(경남/울산/포항/경주),창원 지역,,,,,
store,송파마천사거리DT,,서울특별시 송파구 거마로 78 (마천동),37.4997580410365,127.147649403628,운영1(서울남부),송파 지역,,,,,
store,부산광복로,,부산광역시 중구 광복중앙로 8-2 (광복동3가),35.1001081888799,129.03138410594,운영11(부산/양산),부산중구/서구 지역,,,,,
store,가재울뉴타운,,"서울특별시 서대문구 가재울미래로 2 (남가좌동, DMC파크뷰자이2단지별동상가1층)",37.5744019902031,126.917907814167,운영5(서울서북/경기서북부),홍대/서대문 지역,,,,,
store,양주고읍DT,,경기도 양주시 고덕로351 (고읍동),37.8034857401128,127.079339629228,운영6(서울동북/경기북부),양주/동두천 지역,,,,,
store,춘의역DT,,경기도 부천시 원미구 길주로 386 (춘의동),37.5030796176377,126.785378314769,운영7(인천/경기서부),부천동부 지역,,,,,
store,양주옥정타운,,경기도 양주시 회천남로 76 (옥정동),37.818552988368,127.094053115287,운영6(서울동북/경기북부),양주/동두천 지역,,,,,
store,남성역,,서울특별시 동작구 사당로 219 (사당동),37.4841600698068,126.972660477747,운영3(서울서남),사당/동작 지역,,,,,
store,청주비하DT,,충청북도 청주시 흥덕구 2순환로 1078 (비하동),36.6384450876878,127.422130859898,운영9(대전/세종/충청),청주서부 지역,,,,,
store,울산번영로,,울산광역시 남구 삼산로 182 (달동),35.5369318633483,129.327216944872,운영12(경남/울산/포항/경주),울산남구 지역,,,,,
store,울산호계DT,,울산광역시 북구 산업로 1464 (신천동),35.6379155684324,129.345039727081,운영12(경남/울산/포항/경주),울산북구/중구 지역,,,,,
store,평촌역DT,,경기도 안양시 동안구 시민대로 373 (관양동),37.3965376192549,126.971217080243,운영2(서울동남/경기동부),과천/평촌 지역,,,,,
store,수원세류DT,,경기도 수원시 권선구 권선로544번길 1 (세류동),37.26277127574,127.011319615137,운영8(경기남부),수원영통 지역,,,,,
store,용인언남,,경기도 용인시 기흥구 구성로 120 (언남동),37.2925886483183,127.122043140669,운영8(경기남부),용인기흥 지역,,,,,
store,낙성대역,,서울특별시 관악구 남부순환로 1908 (봉천동),37.4777033870366,126.961205621131,운영3(서울서남),사당/동작 지역,,,,,
store,창동이마트,,서울특별시 도봉구 노해로65길 4 (창동),37.651636123068,127.046699282846,운영6(서울동북/경기북부),노원 지역,,,,,
store,대전반석역,,대전광역시 유성구 북유성대로 303 (반석동),36.391632719856,127.314243236674,운영9(대전/세종/충청),대전유성/노은 지역,,,,,
store,화성시청,,경기도 화성시 남양읍 시청로 113,37.200894980056,126.826042410228,운영8(경기남부),화성 지역,,,,,
store,거제대로DT,,경상남도 거제시 거제대로 4521 (수월동),34.8946929046873,128.641621860917,운영12(경남/울산/포항/경주),거제/통영 지역,,,,,
store,상도역,,서울특별시 동작구 상도로37길 1 (상도1동),37.503243422806,126.948446659578,운영3(서울서남),사당/동작 지역,,,,,
store,야탑역사거리,,경기도 성남시 분당구 야탑로 102 (야탑동),37.4095893576218,127.130137285101,운영2(서울동남/경기동부),판교/야탑 지역,,,,,
store,의왕청계DT,,경기도 의왕시 안양판교로 246 (청계동),37.3883151356559,126.998382171517,운영2(서울동남/경기동부),과천/평촌 지역,,,,,
store,화성반월DT,,경기도 화성시 효행로 1241 (반월동),37.2201159255886,127.057953611038,운영8(경기남부),동탄서부 지역,,,,,
store,천안서북이마트,,충청남도 천안시 서북구 삼성대로 20 (백석동),36.8385687913558,127.12233923432,운영9(대전/세종/충청),천안서북 지역,,,,,
store,중화역,,서울특별시 중랑구 봉화산로 35 1층,37.6018012867613,127.078340289542,운영6(서울동북/경기북부),중랑 지역,,,,,
store,오산수청DT,,경기도 오산시 경기대로 445 (수청동),37.162964203021,127.066686666563,운영8(경기남부),평택/오산 지역,,,,,
store,제주서해안로DT,,제주특별자치도 제주시 서해안로 624 (용담삼동),33.5166839499686,126.503564232698,운영13(대구/경북/제주),제주동북 지역,,,,,
store,서강대프라자,,서울특별시 마포구 백범로 35 (신수동),37.5514649610226,126.942979960696,운영5(서울서북/경기서북부),마포 지역,,,,,
store,굽은다리역,,"서울특별시 강동구 양재대로 1568 (명일동, 원일타워)",37.545422301431,127.143225315777,운영2(서울동남/경기동부),강동/하남 지역,,,,,
store,미아이마트,,서울특별시 성북구 도봉로 17 (길음동),37.6109116140567,127.02985860184,운영6(서울동북/경기북부),강북 지역,,,,,
store,광주동명,,광주광역시 동구 동명로 16 (동명동),35.1504869036645,126.923539354527,운영10(광주/전라),광주동구 지역,,,,,
store,동대문두타,,서울특별시 중구 장충단로 275 (을지로6가),37.5688849422849,127.008775114213,운영4(서울중부/강원),동대문 지역,,,,,
store,부산송도해수욕장,,"부산광역시 서구 송도해변로 97(101,102,201) (암남동)",35.0772486251845,129.017891712125,운영11(부산/양산),부산중구/서구 지역,,,,,
store,판교유스페이스,,경기도 성남시 분당구 대왕판교로 660 (삼평동),37.4004659332759,127.106812648944,운영2(서울동남/경기동부),판교/정자 지역,,,,,
store,타임스퀘어R,,서울특별시 영등포구 영중로 15 지하 1층 (영등포동4가),37.5172332566615,126.903715993779,운영3(서울서남),영등포서부 지역,,,,,
store,파주P.아울렛B1,,경기도 파주시 탄현면 필승로 200,37.769351232912,126.695385303664,운영5(서울서북/경기서북부),파주 지역,,,,,
store,시흥목감DT,,경기도 시흥시 동서로 950 (조남동),37.3779749386817,126.850006940488,운영7(인천/경기서부),시흥 지역,,,,,
store,방배로,,서울특별시 서초구 방배로 52 (방배동),37.4793466181359,126.999436064256,운영1(서울남부),교대 지역,,,,,
store,광주지원DT,,광주광역시 동구 남문로 529 (용산동),35.1184548083804,126.933324173194,운영10(광주/전라),광주동구 지역,,,,,
store,노량진동,,"서울특별시 동작구 노량진로 190 (노량진동, 고려교육타워-어바니엘한강) 101호~105호",37.5129574445121,126.946862445323,운영3(서울서남),영등포동부 지역,,,,,
store,부산역아스티,,부산광역시 동구 중앙대로214번길 7-8 (초량동),35.116562771472,129.042034211943,운영11(부산/양산),부산남구/동구 지역,,,,,
store,목동파리공원,,서울특별시 양천구 목동동로 377 (목동),37.5353386148924,126.878853892182,운영3(서울서남),목동 지역,,,,,
store,원흥역,,경기도 고양시 덕양구 원흥5로 25 (원흥동),37.6485750124376,126.876556771514,운영5(서울서북/경기서북부),고양/은평 지역,,,,,
store,언주역,,서울특별시 강남구 봉은사로 222 (역삼동),37.507769814405,127.036540554606,운영1(서울남부),논현/삼성 지역,,,,,
store,을지로4가역,,서울특별시 중구 을지로 170 (을지로4가),37.5661391831606,126.99732748195,운영4(서울중부/강원),명동/충무로 지역,,,,,
store,파주문산DT,,경기도 파주시 파주읍 통일로 1555 (봉서리),37.8464637565324,126.78910852184,운영5(서울서북/경기서북부),파주 지역,,,,,
store,고양원흥DT,,경기도 고양시 덕양구 서오릉로663번길 8 (원흥동),37.6368161999508,126.869294316172,운영5(서울서북/경기서북부),고양/은평 지역,,,,,
store,호계지식산업센터,,경기도 안양시 동안구 엘에스로 122 (호계동) 118~123호,37.38758572332927,126.9437452396646,운영2(서울동남/경기동부),산본/안양 지역,,,,,
store,인천계산역DT,,인천광역시 계양구 경명대로 1105 (계산동),37.5436305000355,126.729805762228,운영7(인천/경기서부),인천부평/계양 지역,,,,,
store,배곧아브뉴프랑,,경기도 시흥시 서울대학로278번길 34 (정왕동),37.3682047072201,126.728938399307,운영7(인천/경기서부),시흥 지역,,,,,
store,인천청라한신,,인천광역시 서구 청라커낼로260번길 27 (청라동),37.532387725153,126.647045439061,운영7(인천/경기서부),인천서구 지역,,,,,
store,김포아이앤씨,,경기도 김포시 태장로 779 (장기동),37.6388113236352,126.680625364567,운영7(인천/경기서부),김포 지역,,,,,
store,제주협재,,제주특별자치도 제주시 한림읍 한림로 337,33.393831193545,126.240232982728,운영13(대구/경북/제주),제주서북 지역,,,,,
store,스타필드부천,,경기도 부천시 소사구 옥길로 1 (옥길동),37.4615202479021,126.813940279533,운영7(인천/경기서부),부천동부 지역,,,,,
store,안양역R,,경기도 안양시 만안구 만안로 232 (안양동) 안양민자역사 1층 001호,37.4014349994721,126.92300270344,운영2(서울동남/경기동부),안양 지역,,,,,
store,천안백석,,충청남도 천안시 서북구 백석로 85-4 (백석동),36.8238058185635,127.121586381795,운영9(대전/세종/충청),천안서북 지역,,,,,
store,평택죽백DT,,경기도 평택시 만세로 1707 (죽백동),37.013806597867,127.113461238319,운영8(경기남부),평택/안성 지역,,,,,
store,일산탄현동,,경기도 고양시 일산서구 일현로 91 (탄현동),37.6951944697371,126.764583098824,운영5(서울서북/경기서북부),일산서구/야당 지역,,,,,
store,광주연제DT,,광주광역시 북구 양일로18번길 2 (연제동),35.1974928549492,126.866538108579,운영10(광주/전라),광주북구 지역,,,,,
store,효창공원앞역,,"서울특별시 용산구 백범로 313 (효창동, 용산 롯데캐슬 센터포레)",37.5393023092398,126.962948470932,운영5(서울서북/경기서북부),마포 지역,,,,,
store,금호역,,서울특별시 성동구 동호로 99 (금호동4가),37.5480276263796,127.015358252458,운영3(서울서남),한남/성동 지역,,,,,
store,소노캄고양,,경기도 고양시 일산동구 태극로 18 (장항동),37.6625641218675,126.750199638487,운영5(서울서북/경기서북부),일산서구/야당 지역,,,,,
store,화성봉담,,경기도 화성시 봉담읍 동화길 51,37.2191342141303,126.955551866749,운영8(경기남부),화성 지역,,,,,
store,용인마평DT,,경기도 용인시 처인구 금령로 188 (마평동),37.2335839239067,127.216781051841,운영8(경기남부),용인처인 지역,,,,,
store,분당궁내DT,,경기도 성남시 분당구 대왕판교로 302 (궁내동),37.3706078900645,127.10215063707,운영2(서울동남/경기동부),분당정자/미금 지역,,,,,
store,세종보람,,"세종특별자치시 한누리대로 2165 (보람동) A118,119,120,121,128,129,130,131",36.47736091910952,127.28791878374844,운영9(대전/세종/충청),세종/공주 지역,,,,,
store,곤지암IC DT,,경기도 광주시 곤지암읍 경충대로 765 경충대로 765,37.3556487840687,127.325241983771,운영2(서울동남/경기동부),경기/광주 지역,,,,,
store,수원금곡,,경기도 수원시 권선구 금곡로 219 (금곡동),37.2750009452322,126.954079196941,운영8(경기남부),서수원 지역,,,,,
store,김해진영DT,,경상남도 김해시 진영읍 여래로20번길 34-26,35.3059905275179,128.73189496593,운영12(경남/울산/포항/경주),김해 지역,,,,,
store,길음역,,서울특별시 성북구 정릉로 376 (돈암동),37.6020159406626,127.025322800344,운영4(서울중부/강원),성북/동대문 지역,,,,,
store,마곡나루공원,,서울특별시 강서구 마곡중앙5로 47 (마곡동),37.566907942873,126.82225751683,운영3(서울서남),강서/마곡 지역,,,,,
store,스타필드명지,,부산광역시 강서구 명지국제6로 168 스타필드 명지 1층,35.0931119772294,128.918143592831,운영11(부산/양산),부산강서/사하 지역,,,,,
store,서울숲역,,서울특별시 성동구 왕십리로 50 (성수동1가) 1층,37.5419000229184,127.044975552245,운영6(서울동북/경기북부),왕십리 지역,,,,,
store,경기광주초월역DT,,경기도 광주시 초월읍 경충대로 1084,37.3744165290443,127.298245314295,운영2(서울동남/경기동부),경기/광주 지역,,,,,
store,여수신월DT,,전라남도 여수시 신월로 567 (신월동),34.7246942722348,127.708870732813,운영10(광주/전라),여수 지역,,,,,
store,전남도청DT,,전라남도 무안군 삼향읍 남악3로 54,34.81026280548,126.460605441956,운영10(광주/전라),목포 지역,,,,,
store,안동병원,,경상북도 안동시 앙실로 11 (수상동),36.5467289648671,128.701130564533,운영13(대구/경북/제주),대구달서/안동 지역,,,,,
store,광주오치,,광주광역시 북구 설죽로 314 (오치동),35.1874910379739,126.898895764317,운영10(광주/전라),광주북구 지역,,,,,
store,신사역성일빌딩,,서울특별시 강남구 강남대로 584 (논현동),37.5139723982051,127.020611936716,운영1(서울남부),압구정/신사 지역,,,,,
store,부산교대역DT,,부산광역시 연제구 중앙대로 1250 (거제동),35.1990015085125,129.078873493191,운영11(부산/양산),부산동래/북구 지역,,,,,
store,강북삼성병원,,서울특별시 종로구 새문안로 29 (평동) C관 5층,37.5688677261045,126.967812703696,운영5(서울서북/경기서북부),광화문 지역,,,,,
store,논산내동DT,,충청남도 논산시 시민로 165 (내동),36.1821177809795,127.099781515388,운영9(대전/세종/충청),대전관저/논산 지역,,,,,
store,춘천퇴계DT,,강원특별자치도 춘천시 안마산로 95 (퇴계동),37.8552861914952,127.726277753556,운영4(서울중부/강원),춘천 지역,,,,,
store,전주인후DT,,전북특별자치도 전주시 덕진구 아중로 135 (인후동1가),35.8257503847196,127.164439324292,운영10(광주/전라),전주북부/익산 지역,,,,,
store,도농역,,경기도 남양주시 미금로 239 (다산동),37.6110518592988,127.164620379241,운영6(서울동북/경기북부),다산/양평 지역,,,,,
store,다산지금,,경기도 남양주시 다산지금로 139 (다산동),37.6005611278328,127.174329352115,운영6(서울동북/경기북부),다산/양평 지역,,,,,
store,의정부장암DT,,경기도 의정부시 동일로 114 (장암동),37.6992109934647,127.054632613145,운영6(서울동북/경기북부),의정부/포천 지역,,,,,
store,월계역,,"서울특별시 노원구 초안산로2라길26 월계동(104,105,106호)",37.6300099286586,127.05667170993,운영6(서울동북/경기북부),노원 지역,,,,,
store,김해율하신도시,,경상남도 김해시 율하3로 32 (율하동),35.1709662654723,128.813852108762,운영12(경남/울산/포항/경주),창원/김해 지역,,,,,
store,한국민속촌DT,,경기도 용인시 기흥구 사은로 110 (보라동),37.2558837235885,127.116839310557,운영8(경기남부),용인/수원 지역,,,,,
store,신월동DT,,서울특별시 양천구 남부순환로 319 (신월동),37.5382766609786,126.827091375369,운영3(서울서남),화곡 지역,,,,,
store,군산수송DT,,전북특별자치도 군산시 공단대로 243 (수송동),35.9588366660423,126.714630107486,운영10(광주/전라),전주서부/군산 지역,,,,,
store,순천용당DT,,전라남도 순천시 중앙로 398 (가곡동),34.9801047970706,127.48534334333,운영10(광주/전라),순천/광양 지역,,,,,
store,인천주안DT,,인천광역시 미추홀구 인주대로 443 (주안동),37.4513873988176,126.685905927138,운영7(인천/경기서부),인천미추홀 지역,,,,,
store,부천옥길,,경기도 부천시 소사구 옥길로 118 (옥길동),37.4673098726091,126.822913646027,운영7(인천/경기서부),부천동부 지역,,,,,
store,안성계동DT,,경기도 안성시 안성맞춤대로 805 (계동),36.9860371265472,127.267832147919,운영8(경기남부),평택/안성 지역,,,,,
store,부천상동역,,경기도 부천시 원미구 길주로 105 (상동),37.5064196746015,126.754147529802,운영7(인천/경기서부),부천서부 지역,,,,,
store,삼송역,,경기도 고양시 덕양구 동송로 70 (삼송동),37.6526798112838,126.896113096163,운영5(서울서북/경기서북부),고양/은평 지역,,,,,
store,광주비아DT,,광주광역시 광산구 첨단과기로 81 (비아동),35.2232043372728,126.834878497688,운영10(광주/전라),광주북구 지역,,,,,
store,신흥역,,경기도 성남시 수정구 산성대로 267 (신흥동),37.4413240031714,127.146446763662,운영2(서울동남/경기동부),성남/위례 지역,,,,,
store,고양행신,,경기도 고양시 덕양구 충장로 126 (행신동),37.6237707759187,126.834314301735,운영5(서울서북/경기서북부),고양/덕양 지역,,,,,
store,마곡역,,서울특별시 강서구 공항대로 168 (마곡동),37.5592736391913,126.826136981493,운영3(서울서남),강서/마곡 지역,,,,,
store,문촌사거리,,경기도 고양시 일산서구 중앙로 1470 (주엽동),37.6724166539713,126.75757055587,운영5(서울서북/경기서북부),일산서구/야당 지역,,,,,
store,오산세교,,경기도 오산시 수청로 193 (금암동),37.1766585771507,127.045495808082,운영8(경기남부),평택/오산 지역,,,,,
store,안동이마트,,경상북도 안동시 옥동1길 2 (옥동),36.5584743224722,128.699404613703,운영13(대구/경북/제주),대구달서/안동 지역,,,,,
store,청주이마트,,충청북도 청주시 서원구 청남로 1853 (미평동),36.6011767248613,127.474616956402,운영9(대전/세종/충청),청주서부 지역,,,,,
store,시흥대야동,,경기도 시흥시 비둘기공원7길 51 (대야동),37.4416334805808,126.791902135367,운영7(인천/경기서부),시흥 지역,,,,,
store,송파헬리오시티,,"서울특별시 송파구 송파대로 345 (가락동, 헬리오시티)",37.4976145695004,127.102531804188,운영1(서울남부),송파 지역,,,,,
store,대구각산역DT,,대구광역시 동구 안심로 383,35.8689800027941,128.725982857621,운영13(대구/경북/제주),대구동구 지역,,,,,
store,거제옥포DT,,경상남도 거제시 거제대로 3718 (옥포동),34.8889812849627,128.691558220569,운영12(경남/울산/포항/경주),거제/통영 지역,,,,,
store,주엽강선,,"경기도 고양시 일산서구 중앙로 1371 (주엽동, 강선마을13단지아파트)",37.6671243360506,126.765471646111,운영5(서울서북/경기서북부),일산동구 지역,,,,,
store,용산리첸시아,,"서울특별시 용산구 백범로 341 (원효로1가, 리첸시아 용산)",37.5379811146025,126.967987897826,운영3(서울서남),용산 지역,,,,,
store,영등포구청역,,서울특별시 영등포구 국회대로 558,37.5277473772256,126.896124031689,운영3(서울서남),목동 지역,,,,,
store,압구정윤성빌딩,,서울특별시 강남구 논현로 834 (신사동),37.5228318275385,127.028614847468,운영1(서울남부),압구정/신사 지역,,,,,
store,하남황산사거리,,경기도 하남시 조정대로 65 (풍산동),37.5508440706453,127.186342761477,운영2(서울동남/경기동부),강동/하남 지역,,,,,
store,광교갤러리아9F,,경기도 수원시 영통구 광교호수공원로 320 (하동),37.2845590569979,127.05753004948,운영8(경기남부),수원광교 지역,,,,,
store,코엑스별마당,,서울특별시 강남구 영동대로 513 (삼성동),37.5118239121138,127.059159043842,운영1(서울남부),삼성 지역,,,,,
store,동백이마트,,경기도 용인시 기흥구 동백죽전대로 444 (중동),37.2779959612183,127.151598440729,운영8(경기남부),용인기흥 지역,,,,,
store,일산동구청,,경기도 고양시 일산동구 정발산로 38 (장항동),37.6567152545134,126.773131388502,운영5(서울서북/경기서북부),일산동구 지역,,,,,
store,금천구청역,,"서울특별시 금천구 시흥대로73길 67 (시흥동), 엠메디컬타워 1층",37.4559425553098,126.895747370219,운영3(서울서남),가산 지역,,,,,
store,용인세브란스병원,,경기도 용인시 기흥구 동백죽전대로 363 (중동),37.2707753831425,127.148187270811,운영8(경기남부),용인기흥 지역,,,,,
store,다산진건,,경기도 남양주시 다산중앙로123번길 22-26 (다산동) 123호~128호,37.6248726304674,127.152422448068,운영6(서울동북/경기북부),다산/양평 지역,,,,,
store,부산만덕DT,,부산광역시 북구 만덕대로 323 (만덕동),35.2131726902815,129.039793829174,운영11(부산/양산),부산동래/북구 지역,,,,,
store,마산월남동DT,,경상남도 창원시 마산합포구 3·15대로 70 (월남동2가),35.1859419901203,128.561287807907,운영12(경남/울산/포항/경주),창원/마산 지역,,,,,
store,구로NC,,서울특별시 구로구 구로중앙로 152 (구로동) 구로NC,37.5011601442131,126.882773011925,운영3(서울서남),구로 지역,,,,,
store,동숭길입구,,서울특별시 종로구 대학로 146 (혜화동),37.5842489176,127.002029979851,운영4(서울중부/강원),대학로 지역,,,,,
store,인천용일사거리DT,,인천광역시 미추홀구 한나루로 525 (주안동),37.4536557992482,126.668270398073,운영7(인천/경기서부),인천제물포 지역,,,,,
store,대구율하,,대구광역시 동구 안심로16길 47 (율하동),35.863257459959,128.693740818855,운영13(대구/경북/제주),대구동구 지역,,,,,
store,동광주DT,,광주광역시 북구 동문대로 148 (두암동),35.1758180344285,126.927750789504,운영10(광주/전라),광주동구 지역,,,,,
store,전주신시가지,,전북특별자치도 전주시 완산구 우전로 255 (효자동2가),35.8172654542029,127.101579318156,운영10(광주/전라),전주남부 지역,,,,,
store,시흥은계,,경기도 시흥시 은계번영길 9 (은행동),37.4374709529433,126.801635210149,운영7(인천/경기서부),시흥 지역,,,,,
store,봉은사역,,서울특별시 강남구 봉은사로 619 (삼성동),37.5150273653092,127.063116769411,운영1(서울남부),삼성 지역,,,,,
store,안동강변DT,,경상북도 안동시 육사로 327 (법흥동),36.5622844586195,128.739823004513,운영13(대구/경북/제주),대구달서/안동 지역,,,,,
store,신탄진금강DT,,대전광역시 대덕구 신탄진로 866 (신탄진동),36.4546672269834,127.428951016466,운영9(대전/세종/충청),대전유성/관평 지역,,,,,
store,평택세교DT,,경기도 평택시 경기대로 625 (세교동),37.007346270548,127.078787129681,운영8(경기남부),평택/안성 지역,,,,,
store,안양범계,,경기도 안양시 동안구 시민대로 206 (호계동),37.3917200837362,126.953764399018,운영2(서울동남/경기동부),안양 지역,,,,,
store,북가좌DT,,서울특별시 서대문구 응암로 85 (북가좌동),37.5805716868071,126.911493051935,운영5(서울서북/경기서북부),홍대/서대문 지역,,,,,
store,서울역서부,,서울특별시 용산구 만리재로 202 (서계동),37.5549425482855,126.968462872248,운영4(서울중부/강원),남대문/회현 지역,,,,,
store,용인고매동,,경기도 용인시 기흥구 신고매로 59 (고매동) 리빙파워센터 지하1층,37.2234151888838,127.114248153439,운영8(경기남부),용인/수원 지역,,,,,
store,명학역,,"경기도 안양시 만안구 안양로 96 128,129,130,132,133,134,135,136호",37.3844604191546,126.935592791667,운영2(서울동남/경기동부),산본/안양 지역,,,,,
store,서면문화로,,부산광역시 부산진구 서면문화로 10 (부전동),35.1588242913748,129.057613912224,운영11(부산/양산),부산연제/진구 지역,,,,,
store,의정부민락타운,,경기도 의정부시 오목로 196 (민락동),37.7440510248764,127.099113696287,운영6(서울동북/경기북부),의정부/포천 지역,,,,,
store,대전구암DT,,대전광역시 유성구 월드컵대로289번길 6 (구암동),36.3488494392942,127.332673391492,운영9(대전/세종/충청),대전유성/보령 지역,,,,,
store,천호사거리,,서울특별시 강동구 올림픽로 651 (천호동),37.5397559555383,127.123313958545,운영2(서울동남/경기동부),강동 지역,,,,,
store,해운대중동역,,부산광역시 해운대구 좌동순환로 6 (중동),35.1672265004293,129.168055541782,운영11(부산/양산),부산해운대 지역,,,,,
store,몽촌토성역,,서울특별시 송파구 위례성대로 6 (방이동),37.5168418632122,127.113151435777,운영1(서울남부),송파 지역,,,,,
store,현대킨텍스,,경기도 고양시 일산서구 호수로 817 (대화동),37.6679852145335,126.751647571454,운영5(서울서북/경기서북부),일산서구/야당 지역,,,,,
store,대전용문DT,,대전광역시 서구 도산로 336 (용문동),36.3350850211472,127.389638006891,운영9(대전/세종/충청),대전중구/판암 지역,,,,,
store,인천청라DT,,인천광역시 서구 국제대로 237 (청라동),37.5417873505239,126.647341833889,운영7(인천/경기서부),인천서구 지역,,,,,
store,김포구래DT,,경기도 김포시 양촌읍 봉수대로 1871,37.6348205599259,126.627709190534,운영7(인천/경기서부),김포 지역,,,,,
store,송산그린시티,,경기도 화성시 수노을중앙로 136 (새솔동),37.2847249366123,126.818214100566,운영8(경기남부),화성 지역,,,,,
store,목동트라팰리스,,서울특별시 양천구 오목로 299 (목동),37.5260837006075,126.87035534357,운영3(서울서남),양천 지역,,,,,
store,송도현대아울렛,,인천광역시 연수구 송도국제대로 123 (송도동),37.3816291013573,126.657917047216,운영7(인천/경기서부),인천송도 지역,,,,,
store,창원유니시티,,경상남도 창원시 의창구 중동중앙로 47 (중동),35.2566260149864,128.624998278346,운영12(경남/울산/포항/경주),창원 지역,,,,,
store,묵동,,"서울특별시 중랑구 동일로 952 (묵동, 로프트원 태릉입구역) 1층",37.6153331239502,127.076880465585,운영6(서울동북/경기북부),중랑 지역,,,,,
store,명동남산,,서울특별시 중구 퇴계로 132 (남산동3가),37.5607497585934,126.986468487108,운영4(서울중부/강원),명동/충무로 지역,,,,,
store,오산원동DT,,경기도 오산시 경기대로 218 (원동),37.1441810626901,127.073876453349,운영8(경기남부),평택/오산 지역,,,,,
store,간석중앙공원DT,,인천광역시 남동구 경인로 563 (간석동),37.4633017621371,126.700714626335,운영7(인천/경기서부),인천미추홀 지역,,,,,
store,대전현대아울렛,,대전광역시 유성구 테크노중앙로 123 (용산동),36.4234369155218,127.398516767788,운영9(대전/세종/충청),대전유성/관평 지역,,,,,
store,송도컨벤시아대로DT,,인천광역시 연수구 벤처로 10 (송도동),37.3824843702962,126.636861446948,운영7(인천/경기서부),인천송도 지역,,,,,
store,남가좌사거리,,"서울특별시 서대문구 거북골로 84 (남가좌동, DMC에코자이104동)",37.5782296308468,126.918481311495,운영5(서울서북/경기서북부),홍대/서대문 지역,,,,,
store,서이초교사거리,,서울특별시 서초구 사임당로 143 (서초동),37.4918506404669,127.025236485997,운영1(서울남부),강남/서초 지역,,,,,
store,전주효천DT,,전북특별자치도 전주시 완산구 천잠로 149 (효자동2가),35.8008058027496,127.099305011674,운영10(광주/전라),전주남부 지역,,,,,
store,서면엠디엠타워,,부산광역시 부산진구 중앙대로 639 (범천동),35.1497331070164,129.058779471903,운영11(부산/양산),부산서면/진구 지역,,,,,
store,태릉입구역DT,,서울특별시 노원구 화랑로 469 (공릉동),37.619235027025,127.079338929761,운영6(서울동북/경기북부),중랑 지역,,,,,
store,대구228중앙공원,,대구광역시 중구 동성로2길 95 (동성로2가),35.870189921818,128.596901118103,운영13(대구/경북/제주),대구중구 지역,,,,,
store,자양이마트,,서울특별시 광진구 아차산로 272 (자양동) 지하1층,37.5385582736952,127.072996184863,운영6(서울동북/경기북부),성수 지역,,,,,
store,천호대로길동,,서울특별시 강동구 천호대로 1131 거산 유팰리스,37.534798519761,127.13723890201,운영2(서울동남/경기동부),강동 지역,,,,,
store,김해금관대로DT,,경상남도 김해시 금관대로 1293 (내동),35.2398666342784,128.860893915737,운영12(경남/울산/포항/경주),김해 지역,,,,,
store,춘천온의,,강원특별자치도 춘천시 방송길 104 (온의동),37.8675324782385,127.720839253747,운영4(서울중부/강원),춘천 지역,,,,,
store,구리토평DT,,경기도 구리시 벌말로 88 (토평동),37.5845723689808,127.147314523637,운영6(서울동북/경기북부),구리/별내 지역,,,,,
store,부천중동센트럴,,"경기도 부천시 원미구 소향로 181 (중동, 센트럴파크 푸르지오)",37.502022945731,126.768132931615,운영7(인천/경기서부),부천서부 지역,,,,,
store,진주혁신도시,,경상남도 진주시 에나로127번길 30 (충무공동),35.1806603541538,128.143954450206,운영12(경남/울산/포항/경주),진주/사천 지역,,,,,
store,사상엄궁DT,,부산광역시 사상구 낙동대로 744 (엄궁동),35.1276648631973,128.969771450325,운영11(부산/양산),부산사상/사하 지역,,,,,
store,서울웨이브아트센터,,서울특별시 서초구 잠원로 145-35 (잠원동),37.5188152641697,127.006960716786,운영1(서울남부),반포/이수 지역,,,,,
store,동탄호수공원,,경기도 화성시 동탄대로 181 (송동),37.1720680647347,127.104140595235,운영8(경기남부),동탄동부 지역,,,,,
store,구미확장단지,,경상북도 구미시 산동읍 신당1로4길 19,36.1558110710896,128.429937473807,운영13(대구/경북/제주),구미/김천 지역,,,,,
store,성수낙낙,,서울특별시 성동구 광나루로8길 31 (성수동2가) 성수낙낙 1층 101~107호,37.5471881065539,127.066325845916,운영6(서울동북/경기북부),성수 지역,,,,,
store,파주운정이마트,,경기도 파주시 한울로 123 (동패동),37.7103886992595,126.745102298599,운영5(서울서북/경기서북부),파주 지역,,,,,
store,해운대좌동,,부산광역시 해운대구 좌동순환로 178 (좌동),35.1774991819064,129.175522331017,운영11(부산/양산),부산해운대/기장 지역,,,,,
store,화성안녕DT,,경기도 화성시 효행로 751 (안녕동),37.2025967603308,127.01295590658,운영8(경기남부),화성 지역,,,,,
store,수원세류역DT,,경기도 수원시 권선구 경수대로 185 (세류동),37.2436845701963,127.017181616343,운영8(경기남부),수원영통 지역,,,,,
store,전주IC DT,,전북특별자치도 전주시 덕진구 기린대로 1022 (여의동),35.8679941965243,127.074591989973,운영10(광주/전라),전주서부/군산 지역,,,,,
store,울산국가정원,,울산광역시 중구 태화강국가정원길 205 (태화동),35.5501615003758,129.297271621184,운영12(경남/울산/포항/경주),울산북구/중구 지역,,,,,
store,대치삼성,,서울특별시 강남구 영동대로 237 (대치동),37.5004651329806,127.067064140734,운영1(서울남부),대치/선릉 지역,,,,,
store,무교로,,서울특별시 중구 무교로 15 (무교동),37.5672818668855,126.978921749794,운영4(서울중부/강원),을지로 지역,,,,,
store,당산역사거리,,서울특별시 영등포구 양평로 47 (당산동5가),37.5338722303791,126.90098183202,운영3(서울서남),영등포서부 지역,,,,,
store,충북혁신도시,,충청북도 음성군 맹동면 원중로 1416,36.9086692839595,127.542889489196,운영9(대전/세종/충청),충북 지역,,,,,
store,송파거여역,,서울특별시 송파구 오금로 493 (거여동),37.4936607574239,127.143701086175,운영1(서울남부),송파 지역,,,,,
store,범일동일타워,,부산광역시 동구 조방로 14 (범일동),35.1387281351032,129.06345343296,운영11(부산/양산),부산서면/진구 지역,,,,,
store,다산DT,,경기도 남양주시 다산중앙로 19번길5 (다산동),37.6147396501878,127.154867725944,운영6(서울동북/경기북부),다산/양평 지역,,,,,
store,선유도역 1번출구,,서울특별시 영등포구 양평로 128 (양평동5가)양평로 128,37.5382902301472,126.893664746293,운영3(서울서남),영등포서부 지역,,,,,
store,세종소담,,"세종특별자치시 소담3로 8 (소담동) 1동  12호,13호,14호,15호,15A호,16호",36.4859370788967,127.300518750995,운영9(대전/세종/충청),세종/공주 지역,,,,,
store,안양덕현DT,,경기도 안양시 동안구 흥안대로 139 (호계동),37.3713017997558,126.960219576803,운영2(서울동남/경기동부),산본/안양 지역,,,,,
store,그랜드센트럴,,서울특별시 중구 세종대로 14 (남대문로5가),37.5578385325826,126.9744151,운영4(서울중부/강원),남대문/회현 지역,,,,,
store,고양향동,,경기도 고양시 덕양구 꽃마을로 4 (향동동),37.5989399402577,126.892204900814,운영5(서울서북/경기서북부),고양/덕양 지역,,,,,
store,코엑스아셈타워,,서울특별시 강남구 영동대로 517 (삼성동),37.5131101543222,127.059758068383,운영1(서울남부),삼성 지역,,,,,
store,서광주DT,,광주광역시 서구 서광주로 23 (매월동),35.1293314779787,126.847415863743,운영10(광주/전라),광주서구 지역,,,,,
store,인하대역,,인천광역시 미추홀구 독배로 309 (용현동),37.4477929074767,126.649257867689,운영7(인천/경기서부),인천제물포 지역,,,,,
store,가양역사거리,,"서울특별시 강서구 화곡로 416 (등촌동) 가양더스카이벨리5차 지식산업센터 101, 102, 114,~117호",37.55670951772827,126.855418635245,운영3(서울서남),양천 지역,,,,,
store,신중동,,경기도 부천시 원미구 신흥로 187 (중동),37.5004249178852,126.776449424786,운영7(인천/경기서부),부천동부 지역,,,,,
store,그랜드조선 부산,,부산광역시 해운대구 해운대해변로 292 (중동),35.1600663074705,129.163127599383,운영11(부산/양산),부산해운대 지역,,,,,
store,서울대치과병원,,서울특별시 종로구 대학로 101 서울대학교 치과병원 신관1층,37.5804523853297,126.997196437908,운영4(서울중부/강원),대학로 지역,,,,,
store,평택청북DT,,경기도 평택시 청북읍 안청로2길 86,37.0201663036521,126.914956222048,운영8(경기남부),평택 지역,,,,,
store,대전용전DT,,대전광역시 동구 한밭대로 1239 (용전동),36.3571556679406,127.435406726939,운영9(대전/세종/충청),대전탄방/용전 지역,,,,,
store,청주분평DT,,충청북도 청주시 서원구 1순환로 1154 (분평동),36.6058052210159,127.494821575067,운영9(대전/세종/충청),청주서부 지역,,,,,
store,테헤란로아남타워,,서울특별시 강남구 테헤란로 311 (역삼동),37.5037441420961,127.044854487099,운영1(서울남부),역삼 지역,,,,,
store,인천도화DT,,인천광역시 미추홀구 장고개로 28 (도화동),37.4704487784967,126.667210452089,운영7(인천/경기서부),인천제물포 지역,,,,,
store,해운대 엑스더스카이,,부산광역시 해운대구 달맞이길30,35.1613327099223,129.168013841974,운영11(부산/양산),부산해운대 지역,,,,,
store,스타필드안성R,,경기도 안성시 공도읍 서동대로 3930-39,36.9946334108693,127.147249620616,운영8(경기남부),평택/안성 지역,,,,,
store,구로고척,,서울특별시 구로구 경인로 387 (고척동),37.4970868505034,126.863142594513,운영3(서울서남),구로 지역,,,,,
store,서동탄DT,,경기도 오산시 외삼미로 162-48 (외삼미동),37.1974410516987,127.064957369924,운영8(경기남부),동탄서부 지역,,,,,
store,산본역서부사거리,,경기도 군포시 번영로 485 (산본동) 롯데피트인 산본 1층 일부,37.3578052964351,126.93066890189,운영2(서울동남/경기동부),산본/안양 지역,,,,,
store,제주공항DT,,제주특별자치도 제주시 월성로 42 (용담이동),33.5006302664309,126.505328779165,운영13(대구/경북/제주),제주서북 지역,,,,,
store,대전갈마DT,,대전광역시 서구 계룡로 384 (갈마동),36.3515740460503,127.370502976797,운영9(대전/세종/충청),대전둔산/홍성 지역,,,,,
store,천안업성레이크,,충청남도 천안시 서북구 업성수변로 69 (성성동),36.8454630468354,127.138067736898,운영9(대전/세종/충청),천안서북 지역,,,,,
store,구미광평DT,,경상북도 구미시 구미대로 188 (광평동),36.103622905895,128.363614600621,운영13(대구/경북/제주),구미/김천 지역,,,,,
store,화성향남2지구,,"경기도 화성시 향남읍 발안양감로 187 발안양감로 187 센트럴프라자1동 108호,204호",37.1150791196461,126.910955948181,운영8(경기남부),화성 지역,,,,,
store,용산해링턴스퀘어,,서울특별시 용산구 서빙고로 17 (한강로3가),37.5269056148241,126.966566172294,운영3(서울서남),용산 지역,,,,,
store,상일동역,,"서울특별시 강동구 고덕로 399 (고덕동, 고덕센트럴푸르지오)",37.5574405229047,127.16967893433,운영2(서울동남/경기동부),강동/하남 지역,,,,,
store,등촌대로,,"서울특별시 강서구 공항대로 543 (염창동, 센터스퀘어)",37.5507388549618,126.866412265444,운영3(서울서남),양천 지역,,,,,
store,동탄디엠시티,,"경기도 화성시 동탄대로 636-14 (영천동, 동탄역 대방디엠시티 더 센텀)",37.2102717882123,127.099442268872,운영8(경기남부),동탄동부 지역,,,,,
store,의정부이마트,,경기도 의정부시 민락로 210 (민락동),37.7431843082026,127.102364149255,운영6(서울동북/경기북부),의정부/포천 지역,,,,,
store,수지성복역,,경기도 용인시 수지구 성복2로 37 (성복동),37.3128194083014,127.080198131466,운영8(경기남부),용인수지 지역,,,,,
store,포항포스코DT,,경상북도 포항시 남구 동해안로6213번길 15-15 (동촌동),35.9963390819788,129.388737770455,운영12(경남/울산/포항/경주),경주/포항 지역,,,,,
store,홍대역8번출구,,서울특별시 마포구 양화로 166 (동교동),37.556743503599,126.924166543608,운영5(서울서북/경기서북부),홍대/서대문 지역,,,,,
store,강서구청사거리,,서울특별시 강서구 화곡로 350 (화곡동),37.55480957734,126.852209910209,운영3(서울서남),양천 지역,,,,,
store,의왕내손,,경기도 의왕시 내손중앙로 4 (내손동)  벨포레스퀘어 G111~116호,37.3891056194264,126.976944770614,운영2(서울동남/경기동부),과천/평촌 지역,,,,,
store,공주DT,,충청남도 공주시 무령로 467 (신관동),36.4682135247945,127.14293812349,운영9(대전/세종/충청),세종/공주 지역,,,,,
store,청주복대지웰,,충청북도 청주시 흥덕구 대농로 52 (복대동),36.6415746029751,127.428196010806,운영9(대전/세종/충청),청주서부 지역,,,,,
store,인천공촌DT,,인천광역시 서구 경명대로694번길 2 (공촌동),37.5516701370612,126.685366399038,운영7(인천/경기서부),인천서구 지역,,,,,
store,대구반월삼성,,대구광역시 중구 달구벌대로 2095 (덕산동),35.8663183838019,128.592798810904,운영13(대구/경북/제주),대구중구 지역,,,,,
store,대구월드컵대로DT,,대구광역시 수성구 유니버시아드로 330 (욱수동),35.8289322010043,128.706469612391,운영13(대구/경북/제주),대구수성 지역,,,,,
store,대구만촌이마트,,대구광역시 수성구 동원로 136 (만촌동),35.8712064928348,128.637147299293,운영13(대구/경북/제주),대구수성/동구 지역,,,,,
store,분당서현역AK R,,경기도 성남시 분당구 황새울로360번길 42 (서현동),37.3851022326251,127.122703082975,운영2(서울동남/경기동부),분당서현/수내 지역,,,,,
store,세종아름,,"세종특별자치시 아름서1길 13-9 (아름동) 103,104,105,202,203호",36.51225203199551,127.24986529069147,운영9(대전/세종/충청),세종/오송 지역,,,,,
store,수원탑동DT,,경기도 수원시 권선구 서부로 1775 (탑동),37.2672499316648,126.971261627451,운영8(경기남부),서수원 지역,,,,,
store,구미문성DT,,경상북도 구미시 고아읍 들성로 207,36.1608631260311,128.342917793183,운영13(대구/경북/제주),구미/김천 지역,,,,,
store,성남모란DT,,경기도 성남시 중원구 둔촌대로 131 (성남동),37.4292125482751,127.133438826514,운영2(서울동남/경기동부),판교/야탑 지역,,,,,
store,대치한티,,서울특별시 강남구 선릉로 324 (대치동),37.4985303841214,127.052094163626,운영1(서울남부),대치/선릉 지역,,,,,
store,송도캐슬파크,,인천광역시 연수구 인천타워대로132번길 9 (송도동),37.3853568114247,126.641346644208,운영7(인천/경기서부),인천송도 지역,,,,,
store,해운대NC,,부산광역시 해운대구 해운대로 813 (좌동),35.1706091827148,129.177076183632,운영11(부산/양산),부산해운대/기장 지역,,,,,
store,전남화순DT,,전라남도 화순군 화순읍 서양로 478,35.0684982665008,126.988792377505,운영10(광주/전라),광주동구 지역,,,,,
store,경주용강DT,,경상북도 경주시 산업로 4350 (용강동),35.8677638249416,129.224359536225,운영12(경남/울산/포항/경주),경주/포항 지역,,,,,
store,김해가야로DT,,경상남도 김해시 가야로 450 (동상동),35.2409094803472,128.884347769161,운영12(경남/울산/포항/경주),김해 지역,,,,,
store,진관DT,,서울특별시 은평구 연서로 645 (진관동),37.6501783208217,126.936159835999,운영5(서울서북/경기서북부),고양/은평 지역,,,,,
store,현대신촌,,서울특별시 서대문구 신촌로 83 (창천동),37.5560830579515,126.935844876509,운영5(서울서북/경기서북부),신촌 지역,,,,,
store,도산사거리,,서울특별시 강남구 언주로 727 (논현동),37.5196000023598,127.034111771548,운영1(서울남부),논현/삼성 지역,,,,,
store,남이섬,,경기도 가평군 가평읍 북한강변로 1054 북한강변로 1054,37.8065679946341,127.52532805084,운영6(서울동북/경기북부),남양주/가평 지역,,,,,
store,더현대서울(B2)R,,서울특별시 영등포구 여의대로 108 (여의도동),37.5251913154781,126.929112756574,운영3(서울서남),여의도 지역,,,,,
store,대구복현DT,,대구광역시 북구 대학로 150 (복현동),35.8968233393021,128.614459952981,운영13(대구/경북/제주),대구북구 지역,,,,,
store,금정구서,,부산광역시 금정구 금강로 441 (구서동),35.246972040401,129.088705033066,운영11(부산/양산),부산금정 지역,,,,,
store,익산동산DT,,전북특별자치도 익산시 평동로 722 (동산동),35.9289644113648,126.958394574834,운영10(광주/전라),전주북부/익산 지역,,,,,
store,원주단구DT,,강원특별자치도 원주시 서원대로 443 (단구동),37.3284876595595,127.953512735957,운영4(서울중부/강원),원주 지역,,,,,
store,영도대교,,부산광역시 영도구 태종로 39 (대교동1가),35.0945978765904,129.037251591465,운영11(부산/양산),부산중구/서구 지역,,,,,
store,화성남양DT,,경기도 화성시 남양읍 시청로32번길 6,37.2071475981153,126.819097882367,운영8(경기남부),화성 지역,,,,,
store,용인흥덕DT,,경기도 용인시 기흥구 흥덕1로 85 (영덕동),37.2748512155548,127.071790741998,운영8(경기남부),용인/수원 지역,,,,,
store,여의도원센티널,,서울특별시 영등포구 여의대로 70 (여의도동),37.5248391165921,126.924184821656,운영3(서울서남),여의도 지역,,,,,
store,평택이충DT,,경기도 평택시 청원로 1388 (이충동),37.0519107964149,127.077113240433,운영8(경기남부),평택/오산 지역,,,,,
store,군자사거리,,서울특별시 광진구 천호대로 549 (중곡동) 1층,37.5576984952347,127.079226104632,운영6(서울동북/경기북부),광진 지역,,,,,
store,더북한강R,,경기도 남양주시 화도읍 북한강로 1098,37.6124521585896,127.342008966708,운영6(서울동북/경기북부),남양주/가평 지역,,,,,
store,김포통진DT,,경기도 김포시 통진읍 김포대로 2026,37.6830416365452,126.619376572058,운영7(인천/경기서부),김포 지역,,,,,
store,속초교동DT,,강원특별자치도 속초시 청대로 339 (교동),38.1966662956799,128.571663394048,운영4(서울중부/강원),속초/동해 지역,,,,,
store,파주산내,,경기도 파주시 청암로17번길 29 (목동동),37.7286536155712,126.735690755442,운영5(서울서북/경기서북부),파주 지역,,,,,
store,부천원종DT,,경기도 부천시 오정구 소사로 826 (원종동),37.5297304150518,126.805436828252,운영7(인천/경기서부),부천동부 지역,,,,,
store,명지퍼스트월드,,"부산광역시 강서구 명지국제7로 37 (명지동, 더샵 명지퍼스트월드 2단지)",35.0975218758561,128.905203069718,운영11(부산/양산),부산강서/사하 지역,,,,,
store,영등포시장교차로,,서울특별시 영등포구 영중로 45 (영등포동6가),37.5204605301046,126.904457084497,운영3(서울서남),영등포서부 지역,,,,,
store,수원종합운동장,,경기도 수원시 장안구 송원로 71 (송죽동),37.3013264271944,127.008780928272,운영8(경기남부),서수원 지역,,,,,
store,양주회정DT,,경기도 양주시 평화로 1687 (회정동),37.8395759556016,127.054707123079,운영6(서울동북/경기북부),양주/동두천 지역,,,,,
store,강릉율곡DT,,강원특별자치도 강릉시 율곡로 2996 (교동),37.7699284743272,128.892196609127,운영4(서울중부/강원),강릉 지역,,,,,
store,여수마리나,,전라남도 여수시 웅천로 134 (웅천동),34.7403660493948,127.677842041465,운영10(광주/전라),여수 지역,,,,,
store,구리인창DT,,경기도 구리시 건원대로 53 (인창동),37.605660346078,127.13928663565,운영6(서울동북/경기북부),구리/별내 지역,,,,,
store,남양주묵현DT,,경기도 남양주시 화도읍 비룡로 122,37.6632237491849,127.302725025789,운영6(서울동북/경기북부),남양주/가평 지역,,,,,
store,연산트레이더스,,부산광역시 연제구 좌수영로 241 연산동,35.1850939786146,129.111950912034,운영11(부산/양산),부산연제/진구 지역,,,,,
store,수원나혜석거리,,경기도 수원시 팔달구 권광로188번길 17 (인계동),37.2642359486471,127.034158143622,운영8(경기남부),수원팔달 지역,,,,,
store,울산대학교병원,,울산광역시 동구 대학병원로 30 (서부동),35.5208130129857,129.428658288627,운영12(경남/울산/포항/경주),울산동구 지역,,,,,
store,부산대연못골,,부산광역시 남구 못골로 87 (대연동),35.1361145039001,129.092028877694,운영11(부산/양산),부산남구/동구 지역,,,,,
store,창원파티마병원,,경상남도 창원시 의창구 창이대로 45 (명서동),35.2372421834462,128.644485942945,운영12(경남/울산/포항/경주),창원 지역,,,,,
store,전주호성DT,,전북특별자치도 전주시 덕진구 동부대로 860 (호성동1가),35.8636463732765,127.150784981555,운영10(광주/전라),전주북부/익산 지역,,,,,
store,동탄목동,,경기도 화성시 동탄순환대로20길 124 (목동),37.1827031716709,127.124713697205,운영8(경기남부),동탄동부 지역,,,,,
store,상주무양DT,,경상북도 상주시 영남제일로 1683 (무양동),36.4259914547701,128.157319561147,운영13(대구/경북/제주),대구중구 지역,,,,,
store,광명롯데몰,,경기도 광명시 일직로 17 (일직동) 롯데아울렛 1층,37.4243110028905,126.882779952497,운영7(인천/경기서부),광명 지역,,,,,
store,안성서동대로DT,,경기도 안성시 공도읍 서동대로 4314 서동대로 4314,37.0048167672848,127.182089433237,운영8(경기남부),평택/안성 지역,,,,,
store,서대문역,,서울특별시 종로구 통일로 134 (평동),37.5667350238449,126.966357200132,운영5(서울서북/경기서북부),충정로 지역,,,,,
store,하남풍산역,,경기도 하남시 덕풍서로 80 (덕풍동) 빌리브하남 101~106호,37.5535498710158,127.205965875282,운영2(서울동남/경기동부),하남/미사 지역,,,,,
store,남부순환로방배DT,,서울특별시 서초구 남부순환로 2230 (방배동),37.4730948936126,126.995943234062,운영1(서울남부),교대 지역,,,,,
store,군산조촌DT,,전북특별자치도 군산시 번영로 133 (조촌동),35.9669262860013,126.734678017638,운영10(광주/전라),전주서부/군산 지역,,,,,
store,판교아이스퀘어,,경기도 성남시 수정구 창업로 18(시흥동),37.4134341398421,127.098395147212,운영2(서울동남/경기동부),판교/야탑 지역,,,,,
store,사하장림DT,,부산광역시 사하구 을숙도대로 682 (장림동),35.0846132564958,128.9801522659,운영11(부산/양산),부산강서/사하 지역,,,,,
store,송파NC,,서울특별시 송파구 충민로 66 (문정동)  가든파이브라이프 패션관1층,37.4776148442516,127.124961768886,운영2(서울동남/경기동부),문정/가락 지역,,,,,
store,청량리역사,,서울특별시 동대문구 왕산로 214 (전농동) 청량리역사 CONNECT PLACE6층,37.584197400389,127.05114503929,운영4(서울중부/강원),동대문 지역,,,,,
store,강남세곡,,서울특별시 강남구 헌릉로569길 18 (세곡동),37.4672742584166,127.099929765276,운영1(서울남부),도곡 지역,,,,,
store,서울역사,,서울특별시 용산구 한강대로 405 (동자동) 신-101호,37.5548375992165,126.971732581232,운영4(서울중부/강원),남대문/회현 지역,,,,,
store,내발산,,"서울특별시 강서구 강서로 323 (내발산동), 101/102호",37.54793064116889,126.82755816372467,운영3(서울서남),화곡 지역,,,,,
store,목동10단지,,"서울특별시 양천구 목동서로 401 (신정동, 대림아크로빌), 상가A동 101,101-1호",37.5176211734141,126.858916977626,운영3(서울서남),목동 지역,,,,,
store,김해주촌DT,,경상남도 김해시 주촌면 선천로 99,35.2353018438103,128.843497291397,운영12(경남/울산/포항/경주),김해 지역,,,,,
