name,address,src_lat,src_lon,kakao_lat,kakao_lon,diff_km,status,detail
국립국악고등학교,서울특별시 강남구 개포로22길 65,37.4757379,127.0511061,37.4762397420077,127.051213825746,0.057,match,
서울대학교사범대학부설고등학교,서울특별시 성북구 월곡로 6,37.5968694,127.0379052,37.5947007712696,127.038143027214,0.242,match,
국립전통예술고등학교,서울특별시 금천구 시흥대로38길 62,37.4460087,126.906605,37.4463710473917,126.906462134788,0.042,match,
가락고등학교,서울특별시 송파구 송이로 42,37.4875701,127.132157,37.5010563298142,127.116425801136,2.043,mismatch,
강동고등학교,서울특별시 강동구 구천면로 572,37.5469479,127.1339475,37.5499166487971,127.160668324892,2.379,mismatch,
강서고등학교,서울특별시 양천구 목동중앙남로 27,37.536826,126.866562,37.5363155693554,126.865771125825,0.09,match,
개포고등학교,서울특별시 강남구 개포로 402,37.484974,127.0592235,37.4850425995284,127.059305485497,0.011,match,
건국대학교사범대학부속고등학교,서울특별시 광진구 능동로 120,37.5437621,127.0764869,37.539182674872,127.074711902268,0.533,minor,
경기고등학교,서울특별시 강남구 영동대로 643,37.5165287,127.0561144,37.517564539911,127.056075505663,0.115,match,
경기여자고등학교,서울특별시 강남구 삼성로 29,37.487175,127.065613,37.4869545236322,127.06612364407,0.051,match,
경동고등학교,서울특별시 성북구 보문로29길 49,37.5867727,127.0136032,37.5859418116443,127.01457927632,0.126,match,
경문고등학교,서울특별시 동작구 동작대로 171,37.4924766,126.9816861,37.4934188575707,126.982273400501,0.117,match,
경복고등학교,서울특별시 종로구 자하문로28가길 9,37.5868704,126.9715432,37.585945671102,126.971510913077,0.103,match,
경복여자고등학교,서울특별시 강서구 화곡로63길 40,37.5583049,126.8511926,37.5578218303652,126.850595718037,0.075,match,
경성고등학교,서울특별시 마포구 성미산로 111,37.5628071,126.9265085,37.563510635781,126.919166278819,0.652,minor,
경신고등학교,서울특별시 종로구 혜화로 74,37.5895885,126.9990155,37.5922022663657,126.999531005507,0.294,match,
경인고등학교,서울특별시 구로구 경인로46길 31,37.4962728,126.8650793,37.4959926823743,126.86542887783,0.044,match,
경희고등학교,서울특별시 동대문구 경희대로 26,37.5971213,127.0519867,37.5939491407769,127.054890960564,0.436,minor,
경희여자고등학교,서울특별시 동대문구 경희대로 26,37.5971213,127.0519867,37.5939491407769,127.054890960564,0.436,minor,
계성고등학교,서울특별시 성북구 길음로 63,37.6075246,127.0203671,37.6075324963563,127.020335456853,0.003,match,
고려대학교사범대학부속고등학교,서울특별시 성북구 정릉로 161,37.6095901,127.0013146,37.6080476933587,127.002616144531,0.206,match,
고척고등학교,서울특별시 구로구 중앙로15길 162,37.506587,126.8557272,37.5080493827144,126.849869103403,0.542,minor,
공항고등학교,서울특별시 강서구 방화대로34길 43,37.5699567,126.8189161,37.5704610944881,126.81851983357,0.066,match,
관악고등학교,서울특별시 영등포구 영등포로6길 26,37.5219571,126.8840827,37.5217916605406,126.88292354628,0.104,match,
광남고등학교,서울 광진구 아차산로70길 17-16,37.5410509,127.1004668,37.541514723184,127.101213923003,0.084,match,
광문고등학교,서울특별시 강동구 동남로 968,37.5432983,127.1544955,37.5604616297792,127.158546528744,1.942,mismatch,
광성고등학교,서울특별시 마포구 신수로8길 20,37.5485862,126.9368279,37.5486975552073,126.935969575594,0.077,match,
광신고등학교,서울특별시 관악구 광신길 141,37.4642078,126.924728,37.4644762024804,126.925940565455,0.111,match,
광양고등학교,서울특별시 광진구 자양로3가길 31,37.5291784,127.0846142,37.529378916523,127.085182284683,0.055,match,
광영고등학교,서울특별시 양천구 남부순환로30길 17,37.5387359,126.8251642,37.5371981027922,126.823275879439,0.239,match,
광영여자고등학교,서울특별시 양천구 남부순환로30길 17,37.5387359,126.8251642,37.5371981027922,126.823275879439,0.239,match,
구로고등학교,서울특별시 구로구 가마산로27길 45,37.4987021,126.8907155,37.4988400846064,126.890309191986,0.039,match,
구일고등학교,서울특별시 구로구 구일로 90-51,37.493954,126.8739432,37.4935052933826,126.874618469825,0.078,match,
압구정고등학교,서울특별시 강남구 압구정로39길 20,37.5310592,127.0322974,37.5311339475008,127.032711640733,0.037,match,
금옥여자고등학교,서울특별시 양천구 신정로 213,37.5115553,126.8538609,37.5109653172242,126.843971681779,0.875,minor,
금천고등학교,서울특별시 금천구 시흥대로38길 26,37.4447895,126.9056719,37.4448950223082,126.904901769267,0.069,match,
남강고등학교,서울특별시 관악구 난곡로34길 80,37.4724219,126.924604,37.4713756726623,126.924909105757,0.119,match,
노원고등학교,서울특별시 노원구 노원로 586,37.6249131,127.0862232,37.6618031933787,127.054019473757,4.987,mismatch,
단국대학교사범대학부속고등학교,서울특별시 강남구 도곡로64길 21,37.4955653,127.0576741,37.4956174948977,127.057768228297,0.01,match,
당곡고등학교,서울특별시 관악구 봉천로21길 108,37.4897021,126.9342798,37.4917603442825,126.934246405052,0.229,match,
대광고등학교,서울특별시 동대문구 안암로 6,37.5776731,127.0244014,37.5779549391135,127.025328234604,0.087,match,
대성고등학교,서울특별시 은평구 갈현로29길 51-24,37.6191646,126.9146135,37.6231422778381,126.909790703133,0.613,minor,
대신고등학교,서울특별시 종로구 사직로 9,37.5756645,126.9706482,37.573123769216,126.96125454884,0.875,minor,
대영고등학교,서울특별시 영등포구 도림로86길 16,37.5036677,126.9051767,37.5036530645899,126.905518076656,0.03,match,
대원고등학교,서울특별시 광진구 용마산로22길 26,37.5638447,127.0894276,37.5624502219725,127.089376716312,0.155,match,
대원여자고등학교,서울특별시 광진구 용마산로22길 26,37.5638447,127.0894276,37.5624502219725,127.089376716312,0.155,match,
대일고등학교,서울특별시 강서구 등촌로35길 90,37.5396704,126.8630226,37.5395861200876,126.862569926977,0.041,match,
대진고등학교,서울특별시 노원구 공릉로62가길 47,37.6375975,127.0751285,37.6378068538477,127.076090022542,0.088,match,
대진여자고등학교,서울특별시 노원구 공릉로 438,37.6357269,127.0706279,37.6461248249441,127.06719658578,1.195,mismatch,
대진디자인고등학교,서울특별시 강남구 광평로39길 93,37.489195,127.0987535,37.4904281491372,127.095979339516,0.281,match,
덕성여자고등학교,서울특별시 종로구 율곡로3길 50,37.577991,126.9829716,37.5777608153459,126.983558137257,0.058,match,
덕원여자고등학교,서울특별시 강서구 강서로45길 91-44,37.5494379,126.828448,37.5486225773288,126.829024518952,0.104,match,
독산고등학교,서울특별시 금천구 문성로 64,37.4760972,126.9108025,37.4762187185354,126.910939635513,0.018,match,
동국대학교사범대학부속고등학교,서울특별시 동대문구 장안벚꽃로 201,37.5855936,127.0716082,37.5780471818476,127.075133018965,0.895,minor,
동덕여자고등학교,서울특별시 서초구 효령로2길 123-5,37.4761812,126.9875166,37.4758460567445,126.992615816174,0.452,minor,
동명여자고등학교,서울특별시 은평구 통일로 793,37.6050498,126.9347481,37.6144187859471,126.92282044301,1.48,mismatch,
동북고등학교,서울특별시 강동구 강동대로 305,37.521715,127.1334801,37.5202406144077,127.139450654266,0.551,minor,
동성고등학교,서울특별시 종로구 대학로 156,37.5850668,127.003081,37.5849699592551,127.003097645534,0.011,match,
동일여자고등학교,서울특별시 금천구 탑골로10길 45,37.4519957,126.9166882,37.4519206711218,126.915824008297,0.077,match,
서울매그넷고등학교,서울특별시 금천구 탑골로10길 45,37.4519957,126.9166882,37.4519206711218,126.915824008297,0.077,match,
동작고등학교,서울특별시 동작구 솔밭로 51,37.4820915,126.9651576,37.4826019423842,126.965086250636,0.057,match,
둔촌고등학교,서울특별시 강동구 명일로 140,37.5312042,127.1441557,37.531432583881,127.143808707936,0.04,match,
마포고등학교,서울특별시 강서구 화곡로 403,37.5593774,126.853168,37.5600277060889,126.85286487714,0.077,match,
면목고등학교,서울특별시 중랑구 용마산로72길 36-14,37.5843416,127.0965972,37.5846634085871,127.097270640409,0.069,match,
명덕고등학교,서울특별시 강서구 강서로47길 34-10,37.5538932,126.8354905,37.5538694849081,126.8339773378,0.133,match,
명덕여자고등학교,서울특별시 강서구 강서로47길 34-10,37.5538932,126.8354905,37.5538694849081,126.8339773378,0.133,match,
동국대학교사범대학부속가람고등학교,서울특별시 광진구 광나루로36길 47,37.543256,127.0862807,37.5419210650592,127.086977917618,0.161,match,
명일여자고등학교,서울특별시 강동구 명일로 350,37.5498681,127.151011,37.5497763325665,127.149581506712,0.126,match,
명지고등학교,서울특별시 서대문구 명지2길 56,37.5833806,126.9271848,37.5849113531243,126.927090249447,0.17,match,
무학여자고등학교,서울특별시 성동구 고산자로 197,37.5475182,127.0365547,37.5576263308862,127.033880902274,1.148,mismatch,
서울문영여자고등학교,서울특별시 관악구 관악로 85,37.4738209,126.9512214,37.4729045674501,126.950918062755,0.105,match,
문일고등학교,서울특별시 금천구 시흥대로47길 45,37.4492245,126.8991742,37.4489152569278,126.898720653088,0.053,match,
미림여자고등학교,서울특별시 관악구 호암로 546,37.4666114,126.9324851,37.4661018035835,126.931927855676,0.075,match,
반포고등학교,서울특별시 서초구 고무래로 71,37.5031991,127.0105906,37.5027027335348,127.016510661972,0.525,minor,
배명고등학교,서울특별시 송파구 삼학사로 11,37.4987937,127.0957363,37.4976894981876,127.095811765574,0.123,match,
배문고등학교,서울특별시 용산구 효창원로 258,37.5414226,126.9631615,37.5499187190496,126.963904100329,0.947,minor,
배재고등학교,서울특별시 강동구 고덕로 227,37.5561611,127.1510738,37.5550559824557,127.150160525237,0.147,match,
배화여자고등학교,서울특별시 종로구 필운대로1길 34,37.5785452,126.966875,37.5795440101952,126.967291871532,0.117,match,
보성고등학교,서울특별시 송파구 양재대로 1278,37.4951242,127.1072015,37.5200898870034,127.135729296295,3.747,mismatch,
보성여자고등학교,서울특별시 용산구 신흥로3가길 66,37.5415685,126.9844661,37.5430815444968,126.984284175086,0.169,match,
삼성고등학교,서울특별시 관악구 신림로 41,37.4709222,126.942112,37.469107701859,126.944010788599,0.262,match,
상계고등학교,서울특별시 노원구 노해로 432,37.6543272,127.0619101,37.652724684304,127.055453430868,0.596,minor,
상명대학교사범대학부속여자고등학교,서울특별시 종로구 홍지문2길 20,37.6029659,126.9550092,37.604108905882,126.955159496571,0.128,match,
상명고등학교,서울특별시 노원구 덕릉로 553,37.6711828,127.0823376,37.649540794927,127.067701313205,2.73,mismatch,
상문고등학교,서울특별시 서초구 명달로 45,37.4784336,127.0059992,37.4797554325594,127.003916819634,0.235,match,
서라벌고등학교,서울특별시 노원구 한글비석로5길 18,37.6448855,127.0756115,37.6452565325417,127.075840635297,0.046,match,
서문여자고등학교,서울특별시 서초구 동광로12길 84,37.490238,126.9865321,37.4889197255873,126.984545759343,0.228,match,
서울고등학교,서울특별시 서초구 효령로 197,37.4795759,126.9921622,37.4842930566875,127.004901860862,1.24,mismatch,
서울미술고등학교,서울특별시 관악구 남부순환로247길 26,37.4781786,126.9659466,37.4766963066016,126.966748525059,0.179,match,
서울세종고등학교,서울특별시 강남구 광평로51길 36,37.4900792,127.1014586,37.4903893469638,127.102796812957,0.123,match,
서울여자고등학교,서울특별시 마포구 백범로25길 34,37.5494467,126.9479259,37.5478000312208,126.94902525222,0.207,match,
서울체육고등학교,서울특별시 송파구 강동대로 232,37.527436,127.1201624,37.5223303821085,127.129822552593,1.024,mismatch,
석관고등학교,서울특별시 성북구 한천로70길 30,37.6096785,127.0667187,37.6095613532,127.066723339865,0.013,match,
선덕고등학교,서울특별시 도봉구 시루봉로 53,37.6639411,127.0272838,37.6562750160952,127.026703057445,0.854,minor,
선일여자고등학교,서울특별시 은평구 갈현로29길 27,37.6191646,126.9146135,37.6203042094228,126.911993073275,0.263,match,
선정고등학교,서울특별시 은평구 서오릉로20길 19,37.6162296,126.9091664,37.6187045126614,126.909031611714,0.275,match,
성남고등학교,서울특별시 동작구 대방동길 74,37.5054479,126.9262267,37.5052815748623,126.926615278225,0.039,match,
성동고등학교,서울특별시 중구 퇴계로90길 17,37.5640199,127.0227128,37.5641621970073,127.022389203196,0.033,match,
성보고등학교,서울특별시 관악구 남부순환로156길 39,37.4801739,126.9200321,37.4807283676946,126.920957326353,0.102,match,
성신여자고등학교,서울특별시 성북구 동소문로26가길 80,37.5951063,127.0220935,37.5942896306119,127.022407171613,0.095,match,
성심여자고등학교,서울특별시 용산구 원효로19길 49,37.5332134,126.9540989,37.534209370461,126.95459335968,0.119,match,
세화고등학교,서울특별시 서초구 신반포로 56-7,37.5077334,127.0103494,37.5019964569165,126.994230013893,1.558,mismatch,
세화여자고등학교,서울특별시 서초구 신반포로 56-7,37.5077334,127.0103494,37.5019964569165,126.994230013893,1.558,mismatch,
송곡고등학교,서울특별시 중랑구 양원역로 50,37.60543,127.1073164,37.6058454355439,127.106463734951,0.088,match,
송곡여자고등학교,서울특별시 중랑구 양원역로 67,37.6033016,127.1075172,37.6065806263938,127.10537791548,0.41,minor,
수도여자고등학교,서울특별시 동작구 여의대방로10길 73,37.4928154,126.915433,37.4928014552579,126.914907105304,0.046,match,
수락고등학교,서울특별시 노원구 동일로245길 143,37.6805216,127.0521904,37.6829077650293,127.053570991513,0.292,match,
숙명여자고등학교,서울특별시 강남구 남부순환로 2807,37.4955944,127.0666495,37.4914753613052,127.052612582715,1.32,mismatch,
숭문고등학교,서울특별시 마포구 숭문길 99,37.5466444,126.945338,37.5508909515504,126.945886852057,0.475,minor,
숭실고등학교,서울특별시 은평구 은평터널로7길 6,37.5921039,126.9043994,37.5932748232178,126.902403937432,0.219,match,
숭의여자고등학교,서울특별시 동작구 여의대방로36길 79,37.5077372,126.9287846,37.507364139341,126.92924328346,0.058,match,
신광여자고등학교,서울특별시 용산구 청파로 263,37.5338159,126.9666623,37.5428998795519,126.969447523164,1.04,mismatch,
신림고등학교,서울특별시 관악구 문성로 119,37.478729,126.9170674,37.4792104943499,126.916967177377,0.054,match,
신목고등학교,서울특별시 양천구 안양천로 739,37.5384903,126.886104,37.512909431854,126.873606945101,3.05,mismatch,
신일고등학교,서울특별시 강북구 솔매로49길 20,37.6283055,127.0261764,37.627967222367,127.028403050284,0.2,match,
양재고등학교,서울특별시 서초구 남부순환로346길 9,37.4833467,127.0314923,37.4824216431127,127.032079625373,0.115,match,
양정고등학교,서울특별시 양천구 안양천로 1039,37.5344508,126.887051,37.5353922607054,126.887734285049,0.121,match,
양천고등학교,서울특별시 양천구 신정로14길 13,37.5085736,126.8447935,37.5083201483795,126.845202874653,0.046,match,
목동고등학교,서울특별시 양천구 목동동로2길 68,37.5128615,126.8589283,37.5092159752312,126.86019842592,0.421,minor,
언남고등학교,서울 서초구 동산로13길 35,37.472583,127.042431,37.4723300184587,127.043005236379,0.058,match,
여의도고등학교,서울특별시 영등포구 국제금융로7길 37,37.5233762,126.9329253,37.525051010673,126.934219234109,0.218,match,
여의도여자고등학교,서울특별시 영등포구 국제금융로7가길 13,37.5225158,126.9342777,37.5229539211231,126.934857399184,0.071,match,
염광고등학교,서울특별시 노원구 월계로45가길 9,37.6298923,127.0509692,37.6302844506448,127.049264552091,0.156,match,
영동고등학교,서울특별시 강남구 선릉로 742,37.5074391,127.0463889,37.5213890143821,127.043739258782,1.569,mismatch,
영동일고등학교,서울특별시 송파구 석촌호수로 93,37.5071463,127.0933544,37.5099746522433,127.089443727735,0.467,minor,
영등포고등학교,서울특별시 동작구 등용로8길 5,37.5080291,126.9329806,37.5080854131193,126.933143709837,0.016,match,
영락고등학교,서울특별시 관악구 청룡16길 25,37.4765939,126.9448151,37.476541242971,126.945416499639,0.053,match,
서울영상고등학교,서울특별시 양천구 목동로11길 46,37.5231935,126.8623166,37.5233044400227,126.860293524636,0.179,match,
영신고등학교,서울 영등포구 대방천로14길 18,37.4980774,126.9102643,37.4981009442437,126.909739022671,0.046,match,
영신여자고등학교,서울특별시 노원구 중계로16나길 13,37.651583,127.0827853,37.6525485061054,127.08350874514,0.125,match,
영일고등학교,서울특별시 강서구 등촌로51가길 26,37.547873,126.8623835,37.5472872620345,126.86205890011,0.071,match,
영파여자고등학교,서울특별시 송파구 올림픽로 565,37.5144117,127.103849,37.5327371486645,127.119740221132,2.473,mismatch,
영훈고등학교,서울특별시 강북구 도봉로13가길 19,37.6147354,127.0291784,37.6146818749027,127.02809331872,0.096,match,
예일여자고등학교,서울특별시 은평구 연서로 117,37.6203916,126.9230081,37.6109458980893,126.914792838283,1.275,mismatch,
오금고등학교,서울특별시 송파구 중대로 247,37.4984314,127.1257382,37.5045321738186,127.128968951167,0.736,minor,
오류고등학교,서울특별시 구로구 오리로21길 2,37.4980034,126.8265215,37.5003550678039,126.827683012604,0.281,match,
오산고등학교,서울특별시 용산구 보광로7길 17,37.5252661,126.9983695,37.5235805097988,127.000887240982,0.291,match,
용문고등학교,서울특별시 성북구 고려대로17가길 46,37.5882833,127.0248067,37.5886903262008,127.024660795253,0.047,match,
용산고등학교,서울특별시 용산구 두텁바위로 60,37.5429452,126.9826562,37.5458673821179,126.980327669219,0.384,minor,
용화여자고등학교,서울특별시 노원구 동일로 1461,37.6795322,127.0549321,37.6591313767305,127.058280693098,2.288,mismatch,
우신고등학교,서울특별시 구로구 부일로 917,37.4932036,126.8315497,37.4949023087281,126.826353599765,0.496,minor,
은광여자고등학교,서울특별시 강남구 남부순환로359길 36,37.4862488,127.0362633,37.4883484513575,127.035021467585,0.258,match,
은평메디텍고등학교,서울특별시 은평구 진관2로 57-57,37.6355375,126.9291952,37.6353465248875,126.929704776155,0.05,match,
이화여자고등학교,서울특별시 중구 정동길,37.5665209,126.9710723,37.5665547140475,126.971037241447,0.005,match,
이화여자대학교사범대학부속이화금란고등학교,서울특별시 서대문구 성산로 560,37.56582,126.9462875,37.5663888550725,126.947355714248,0.113,match,
인창고등학교,서울특별시 서대문구 경기대로 65,37.5615351,126.9628225,37.564885131451,126.964023197643,0.387,minor,
인헌고등학교,서울특별시 관악구 인헌9길 74,37.4730816,126.96722,37.4723107319026,126.970485117895,0.301,minor,
자양고등학교,서울특별시 광진구 뚝섬로37길 28,37.5354211,127.0721321,37.536077967735,127.073339535384,0.129,match,
잠신고등학교,서울특별시 송파구 잠실로 24,37.5106424,127.1006326,37.5147012912615,127.08828295987,1.179,mismatch,
잠실고등학교,서울특별시 송파구 올림픽로33길 71,37.5163669,127.1088406,37.522930433109,127.106515037791,0.758,minor,
잠실여자고등학교,서울특별시 송파구 송파대로38길 8,37.5002047,127.1122849,37.5017941334924,127.114241325581,0.247,match,
장충고등학교,서울특별시 중구 동호로15길 93,37.5560574,127.0091221,37.5535149002283,127.006414953028,0.37,minor,
장훈고등학교,서울특별시 영등포구 영등포로64길 26,37.5130593,126.9159796,37.5133455931748,126.916228547854,0.039,match,
재현고등학교,서울특별시 노원구 덕릉로82길 64,37.6602729,127.0783619,37.6612906377296,127.080799772038,0.243,match,
정신여자고등학교,서울특별시 송파구 올림픽로4길 16,37.5088359,127.0723848,37.5094538398143,127.073847329188,0.146,match,
정의여자고등학교,서울특별시 도봉구 노해로49길 69,37.6522513,127.0308366,37.6533558400471,127.032427255133,0.186,match,
중경고등학교,서울특별시 용산구 이촌로84길 34,37.518066,126.9766674,37.5176803956953,126.975638256286,0.1,match,
중동고등학교,서울특별시 강남구 일원로 7,37.4930721,127.0807763,37.4937134106081,127.080660058176,0.072,match,
중산고등학교,서울특별시 강남구 일원로14길 22,37.4853336,127.0822124,37.4857429318866,127.0814284922,0.083,match,
중앙고등학교,서울특별시 종로구 창덕궁길 164,37.5848696,126.9868155,37.5837882231459,126.987472622092,0.133,match,
중앙대학교사범대학부속고등학교,서울특별시 강남구 선릉로 207,37.5136997,127.0426175,37.4918425685769,127.05169012944,2.559,mismatch,
중앙여자고등학교,서울특별시 서대문구 북아현로11가길 7,37.5631001,126.9542455,37.5631767195176,126.954059321222,0.018,match,
중화고등학교,서울특별시 중랑구 봉화산로27길 62,37.604736,127.0831384,37.6048146052263,127.083654104942,0.046,match,
진명여자고등학교,서울특별시 양천구 목동로 170,37.5102371,126.8719826,37.5240834137562,126.865465205432,1.643,mismatch,
진선여자고등학교,서울특별시 강남구 선릉로85길 27,37.5020022,127.0466862,37.5023028920315,127.048286565491,0.145,match,
창덕여자고등학교,서울특별시 송파구 양재대로 1240,37.4964265,127.1114091,37.5162747389886,127.140230435212,3.367,mismatch,
창동고등학교,서울특별시 도봉구 노해로62길 7,37.6490061,127.0386344,37.6510357712645,127.038819095625,0.226,match,
창문여자고등학교,서울특별시 강북구 월계로 61,37.6113118,127.0342458,37.6134009168268,127.035828005248,0.271,match,
청담고등학교,서울특별시 강남구 압구정로 419,37.5281029,127.0301358,37.5279473627751,127.043866627763,1.211,mismatch,
청량고등학교,서울특별시 동대문구 왕산로 303,37.5884548,127.0505553,37.5888860047887,127.051310950177,0.082,match,
청원고등학교,서울특별시 노원구 한글비석로 506,37.6661065,127.0694863,37.6652515464657,127.062532889006,0.619,minor,
청원여자고등학교,서울특별시 노원구 한글비석로 506,37.6661065,127.0694863,37.6652515464657,127.062532889006,0.619,minor,
충암고등학교,서울특별시 은평구 가좌로5길 5,37.5861857,126.92144,37.5846402882465,126.921809482886,0.175,match,
태릉고등학교,서울특별시 중랑구 신내로23길 36,37.6187332,127.0865649,37.6189925408244,127.085819844147,0.072,match,
풍문고등학교,서울특별시 강남구 자곡로 152,37.4714253,127.1007248,37.4713361652893,127.09996343408,0.068,match,
한가람고등학교,서울특별시 양천구 목동서로 15,37.5374007,126.8840505,37.5374620404618,126.88400754353,0.008,match,
한강미디어고등학교,서울특별시 영등포구 선유로55길 22,37.53842,126.8969639,37.5393010496265,126.897109034358,0.099,match,
한광고등학교,서울특별시 강서구 등촌로13길 110,37.5354806,126.8611224,37.5388437129063,126.857939342826,0.468,minor,
한국삼육고등학교,서울특별시 노원구 화랑로 815,37.642012,127.1056211,37.643357369067,127.108850343184,0.321,minor,
한서고등학교,서울특별시 강서구 양천로11길 47,37.5746575,126.8097145,37.5747927037293,126.808143937842,0.139,match,
한성고등학교,서울특별시 서대문구 북아현로1길 24,37.5587409,126.9540561,37.559096439531,126.954456481223,0.053,match,
한성여자고등학교,서울특별시 성북구 삼선교로16길 117,37.5858374,127.0109636,37.583064896247,127.011742675693,0.316,minor,
한양대학교사범대학부속고등학교,서울특별시 성동구 마조로 42,37.5613123,127.0424496,37.5619188387132,127.042324044658,0.068,match,
한영고등학교,서울특별시 강동구 동남로 832,37.5432983,127.1544955,37.5490844724681,127.156927612469,0.678,minor,
현대고등학교,서울특별시 강남구 압구정로 127,37.5226317,127.0192929,37.5254804993365,127.022377298509,0.418,minor,
혜성여자고등학교,서울특별시 노원구 노원로16길 2,37.6410127,127.0734975,37.6405502075269,127.073619657657,0.053,match,
혜원여자고등학교,서울특별시 중랑구 봉우재로58길 39,37.5936661,127.0950435,37.5932798745236,127.097042711299,0.181,match,
혜화여자고등학교,서울특별시 강북구 인수봉로 127,37.6333165,127.0132861,37.6313084157842,127.013212021303,0.223,match,
홍익대학교사범대학부속고등학교,서울특별시 성북구 성북로14가길 23,37.5945701,127.0020291,37.5936666161184,127.002804963597,0.122,match,
홍익대학교사범대학부속여자고등학교,서울특별시 마포구 성미산로 51,37.5617413,126.9187313,37.559665162458,126.912928685692,0.561,minor,
화곡고등학교,서울특별시 강서구 강서로45길 69,37.5480495,126.8317245,37.547936112544,126.831535677751,0.021,match,
환일고등학교,서울특별시 중구 환일길 47,37.554686,126.9608795,37.5537559309443,126.962588449936,0.183,match,
휘경여자고등학교,서울특별시 동대문구 한천로 247,37.5829497,127.0674368,37.5819005156881,127.067434080061,0.117,match,
휘문고등학교,서울특별시 강남구 역삼로 541,37.5052385,127.0619983,37.5052894535671,127.061993880621,0.006,match,
서울과학고등학교,서울특별시 종로구 혜화로 63,37.5895885,126.9990155,37.5915480465968,126.998436321282,0.224,match,
한성과학고등학교,서울특별시 서대문구 통일로 279-79,37.5691583,126.9626659,37.57543616578,126.952370943937,1.145,mismatch,
대원외국어고등학교,서울특별시 광진구 용마산로22길 26,37.5638447,127.0894276,37.5624502219725,127.089376716312,0.155,match,
대일외국어고등학교,서울특별시 성북구 서경로 116,37.6134593,127.0127381,37.6133045933527,127.014175970968,0.128,match,
명덕외국어고등학교,서울특별시 강서구 강서로47길 34-10,37.5538932,126.8354905,37.5538694849081,126.8339773378,0.133,match,
서울외국어고등학교,서울특별시 도봉구 덕릉로66길 22,37.6445044,127.0518653,37.6457807932104,127.0515086969,0.145,match,
이화여자외국어고등학교,서울특별시 중구 통일로4길 30,37.565063,126.9684671,37.5655773233848,126.969641663889,0.118,match,
한영외국어고등학교,서울특별시 강동구 동남로 832,37.5432983,127.1544955,37.5490844724681,127.156927612469,0.678,minor,
서울로봇고등학교,서울특별시 강남구 광평로20길 63,37.4816561,127.0861452,37.480741415643,127.084154946756,0.203,match,
서울디지털콘텐츠고등학교,서울특별시 강서구 방화대로47길 9,37.5761622,126.8150312,37.5760316539822,126.816181097939,0.102,match,
경기기계공업고등학교,서울특별시 노원구 공릉로 264,37.6357269,127.0706279,37.6322400488783,127.074928451599,0.542,minor,
광운인공지능고등학교,서울특별시 노원구 광운로1길 24,37.619148,127.0567082,37.6192431974844,127.056540751938,0.018,match,
단국대학교부속소프트웨어고등학교,서울특별시 강남구 도곡로64길 21,37.4955653,127.0576741,37.4956174948977,127.057768228297,0.01,match,
덕일전자공업고등학교,서울특별시 구로구 서해안로21길 5-12,37.4909256,126.8383336,37.4905365201163,126.837134461147,0.114,match,
서울디자인고등학교,서울특별시 마포구 백범로 139,37.545294,126.9476954,37.5466750773343,126.948479002412,0.168,match,
동양고등학교,서울특별시 강서구 허준로 50,37.568873,126.8475466,37.5690302418497,126.846888761424,0.061,match,
상일미디어고등학교,서울특별시 강동구 천호대로219길 61,37.5481846,127.1708191,37.5485874781342,127.170823536325,0.045,match,
미래산업과학고등학교,서울특별시 노원구 덕릉로82길 54,37.6587476,127.0777316,37.658779482984,127.07844069313,0.063,match,
서울공업고등학교,서울특별시 동작구 대방동1길 46,37.5015181,126.9225649,37.5019012578828,126.922363030415,0.046,match,
서울디지텍고등학교,서울특별시 용산구 회나무로12길 27,37.5388252,126.9900728,37.5390082541439,126.990586044119,0.05,match,
서울도시과학기술고등학교,서울특별시 성북구 종암로 196,37.5977865,127.0359446,37.6078074870515,127.033045536038,1.143,mismatch,
성동공업고등학교,서울특별시 중구 다산로 290,37.5504833,127.0075977,37.5693631529572,127.017281730243,2.266,mismatch,
성수공업고등학교,서울특별시 성동구 뚝섬로 365,37.5388188,127.0564187,37.5405694282104,127.050960207026,0.519,minor,
서울인공지능고등학교,서울특별시 송파구 양산로 21,37.4916447,127.1434822,37.4916482412209,127.142085431868,0.123,match,
수도전기공업고등학교,서울특별시 강남구 개포로 410,37.4950054,127.0837583,37.4849375350333,127.064478665219,2.036,mismatch,
신진과학기술고등학교,서울특별시 은평구 은평로6길 16,37.5993187,126.9195827,37.59871384669,126.918836393178,0.094,match,
영등포공업고등학교,서울특별시 강서구 허준로5길 15,37.5693158,126.8502752,37.5698356164942,126.850028274704,0.062,match,
용산철도고등학교,서울특별시 용산구 서빙고로 24,37.5244642,126.967314,37.5243416742733,126.967358069696,0.014,match,
유한공업고등학교,서울특별시 구로구 경인로 8,37.487907,126.8230171,37.4879765968891,126.823290699072,0.025,match,
서울아이티고등학교,서울특별시 노원구 섬밭로 299,37.6443269,127.0630994,37.6424184430399,127.06244927375,0.22,match,
인덕과학기술고등학교,서울특별시 노원구 초안산로 12,37.6313043,127.0543265,37.6302514486494,127.054448642206,0.118,match,
한양공업고등학교,서울특별시 중구 을지로 299,37.5662506,126.9987609,37.5658716036039,127.011443307588,1.119,mismatch,
서울반도체고등학교,서울특별시 동대문구 겸재로 21,37.5851895,127.0698752,37.5851530128648,127.069450940954,0.038,match,
경기상업고등학교,서울특별시 종로구 자하문로 136,37.5885597,126.9697676,37.5892585316989,126.970057092906,0.082,match,
서울의료보건고등학교,서울특별시 중구 만리재로37길 30,37.5571254,126.9657771,37.5573014220873,126.966720436586,0.085,match,
서울동구고등학교,서울특별시 성북구 성북로8길 71,37.5915336,127.0054812,37.5941065881018,127.008215538987,0.374,minor,
서울컨벤션고등학교,서울특별시 강동구 동남로 964,37.5432983,127.1544955,37.5592845614915,127.158215928554,1.808,mismatch,
서울여자상업고등학교,서울특별시 관악구 관악로 85,37.4738209,126.9512214,37.4729045674501,126.950918062755,0.105,match,
선일빅데이터고등학교,서울특별시 은평구 갈현로29길 27,37.6191646,126.9146135,37.6203042094228,126.911993073275,0.263,match,
성덕고등학교,서울특별시 강동구 구천면로 396,37.5499209,127.142208,37.5498545397762,127.141541303447,0.059,match,
서울신정고등학교,서울특별시 강서구 등촌로13아길 20,37.5371944,126.8572393,37.5384117486135,126.85717155125,0.135,match,
영락의료과학고등학교,서울특별시 관악구 청룡16길 25,37.4765939,126.9448151,37.476541242971,126.945416499639,0.053,match,
일신여자상업고등학교,서울특별시 송파구 송파대로38길 8,37.5002047,127.1122849,37.5017941334924,127.114241325581,0.247,match,
서울정화고등학교,서울특별시 동대문구 홍릉로15길 50,37.585681,127.0408044,37.586048641672,127.041070321981,0.047,match,
해성국제컨벤션고등학교,서울특별시 동대문구 전농로20길 31,37.5812876,127.0567267,37.5818725994505,127.056976879173,0.069,match,
홍익디자인고등학교,서울특별시 마포구 성미산로 111,37.5628071,126.9265085,37.563510635781,126.919166278819,0.652,minor,
선정국제관광고등학교,서울특별시 은평구 서오릉로20길 19,37.6162296,126.9091664,37.6187045126614,126.909031611714,0.275,match,
성동글로벌경영고등학교,서울특별시 중구 퇴계로 375,37.5652647,127.0133464,37.5658547150955,127.0135246262,0.067,match,
세그루패션디자인고등학교,서울특별시 도봉구 시루봉로 53,37.6639411,127.0272838,37.6562750160952,127.026703057445,0.854,minor,
영신간호비즈니스고등학교,서울특별시 노원구 중계로16나길 13,37.651583,127.0827853,37.6525485061054,127.08350874514,0.125,match,
예일디자인고등학교,서울특별시 은평구 연서로 117,37.6203916,126.9230081,37.6109458980893,126.914792838283,1.275,mismatch,
덕원예술고등학교,서울특별시 강서구 강서로45길 91-44,37.5494379,126.828448,37.5486225773288,126.829024518952,0.104,match,
서울예술고등학교,서울특별시 종로구 평창문화로 70,37.6060174,126.9692363,37.6057079931502,126.967906461707,0.122,match,
선화예술고등학교,서울특별시 광진구 천호대로 664,37.5504325,127.0875441,37.5509798002896,127.087095159462,0.073,match,
경복비즈니스고등학교,서울특별시 강서구 화곡로 379,37.5580864,126.8526074,37.5580972589988,126.852670273321,0.006,match,
고명외식고등학교,서울특별시 성북구 북악산로 870,37.599176,127.0076308,37.597674141541,127.019187491701,1.032,mismatch,
서울관광고등학교,서울특별시 관악구 은천로15길 25,37.4871996,126.944119,37.4878154195732,126.943760849751,0.075,match,
광신방송예술고등학교,서울특별시 관악구 광신길 141,37.4642078,126.924728,37.4644762024804,126.925940565455,0.111,match,
예림디자인고등학교,서울특별시 구로구 오리로21길 2,37.4980034,126.8265215,37.5003550678039,126.827683012604,0.281,match,
대동세무고등학교,서울특별시 종로구 계동길 84-10,37.5814311,126.9878449,37.5815827310558,126.987951316186,0.019,match,
대일관광고등학교,서울특별시 양천구 신정이펜1로 11,37.5123907,126.8294288,37.5114137684075,126.834906714744,0.495,minor,
덕수고등학교,서울특별시 송파구 위례북로 10,37.4852041,127.1468731,37.4855916213524,127.1470595726,0.046,match,
서울문화고등학교,서울특별시 도봉구 마들로 598,37.6487156,127.0540615,37.6641314270343,127.047285814495,1.815,mismatch,
동명생활경영고등학교,서울특별시 은평구 통일로 793,37.6050498,126.9347481,37.6144187859471,126.92282044301,1.48,mismatch,
미림마이스터고등학교,서울특별시 관악구 호암로 546,37.4666114,126.9324851,37.4661018035835,126.931927855676,0.075,match,
보인고등학교,서울특별시 송파구 오금로49길 18,37.4971396,127.1386359,37.4975692004431,127.139517839227,0.091,match,
서서울생활과학고등학교,서울특별시 구로구 오리로 1355-10,37.4923159,126.8322489,37.5038291911751,126.828259957002,1.328,mismatch,
서울금융고등학교,서울특별시 양천구 가로공원로61길 19,37.5373295,126.8264184,37.5376595496119,126.825914607519,0.058,match,
서일문화예술고등학교,서울특별시 종로구 지봉로17길 49,37.5797068,127.0140886,37.579364496797,127.012786339408,0.121,match,
성암국제무역고등학교,서울특별시 강북구 도봉로29길 52,37.620888,127.0246478,37.6204135324231,127.023905892641,0.084,match,
서울백영고등학교,서울특별시 강서구 방화대로34길 13,37.5699567,126.8189161,37.5692177821112,126.817040800626,0.185,match,
송곡관광고등학교,서울특별시 중랑구 양원역로 67,37.6033016,127.1075172,37.6065806263938,127.10537791548,0.41,minor,
염광메디텍고등학교,서울특별시 노원구 월계로45가길 9,37.6298923,127.0509692,37.6302844506448,127.049264552091,0.156,match,
이화여자대학교병설미디어고등학교,서울특별시 중랑구 망우로73길 56,37.6036011,127.1045399,37.6031323992803,127.105332396209,0.087,match,
서울동산고등학교,서울특별시 노원구 공릉로 257,37.626672,127.0784717,37.6307779754887,127.073998366297,0.603,minor,
은일정보산업고등학교,서울특별시 구로구 궁동 147-1,37.5006694,126.8280726,37.5001306020928,126.832552378782,0.4,minor,
서울홍신고등학교,서울특별시 강서구 강서로45길 70,37.549159,126.832909,37.5484125649861,126.832679697779,0.085,match,
리라아트고등학교,서울특별시 중구 소파로2길,37.5576993,126.9876973,37.5576622746229,126.987778499953,0.008,match,
서울웹툰애니메이션고등학교,서울특별시 서초구 과천대로 852-23,37.4654111,126.9882541,37.4694909673089,126.988245947982,0.454,minor,
선린인터넷고등학교,서울특별시 용산구 원효로97길 33-4,37.5425019,126.9672188,37.5427676844581,126.966079429641,0.105,match,
세명컴퓨터고등학교,서울특별시 은평구 통일로92가길 33,37.6261232,126.9228912,37.6278475739332,126.923545504491,0.2,match,
한세사이버보안고등학교,서울특별시 마포구 마포대로11길 44-80,37.5489387,126.952894,37.5517396875369,126.952136379582,0.319,minor,
누원고등학교,서울특별시 도봉구 마들로 849,37.6487156,127.0540615,37.6855689580624,127.049932683549,4.114,mismatch,
방산고등학교,서울특별시 송파구 오금로27길 18,37.5071002,127.1204134,37.5083995194679,127.120469638696,0.145,match,
신현고등학교,서울특별시 중랑구 봉화산로 174,37.6099459,127.1044798,37.6051463854873,127.092996578059,1.144,mismatch,
자운고등학교,서울특별시 도봉구 노해로69길 150,37.6535999,127.0514126,37.6590464061269,127.050690661699,0.609,minor,
도봉고등학교,서울특별시 도봉구 도봉산길 27,37.6867594,127.0409564,37.6867550062856,127.042578432977,0.143,match,
등촌고등학교,서울특별시 강서구 공항대로39길 115,37.5615221,126.8447077,37.5629452192593,126.845046119983,0.161,match,
경일고등학교,서울특별시 성동구 성수일로 27,37.5488949,127.0513746,37.5438083798316,127.047853796815,0.645,minor,
선유고등학교,서울특별시 영등포구 선유로 227,37.531622,126.8943042,37.5339016190568,126.894850696134,0.258,match,
월계고등학교,서울특별시 노원구 초안산로5길 66,37.6322823,127.0496018,37.6316734128872,127.048388273455,0.127,match,
불암고등학교,서울특별시 노원구 중계로 155,37.63908,127.0827382,37.6491585296421,127.080305829512,1.141,mismatch,
세현고등학교,서울특별시 강서구 허준로 227,37.5603455,126.8637952,37.5604306618095,126.863621128106,0.018,match,
신서고등학교,서울특별시 양천구 은행정로 42,37.5233369,126.8594431,37.5239143189255,126.860209579436,0.093,match,
효문고등학교,서울특별시 도봉구 우이천로 432,37.6481485,127.0242779,37.6526987118348,127.0184004627,0.724,minor,
원묵고등학교,서울특별시 중랑구 숙선옹주로 82,37.6183293,127.0867775,37.6152323139525,127.085507784516,0.362,minor,
상암고등학교,서울특별시 마포구 월드컵북로 445,37.562788,126.9140428,37.5813414106022,126.883394497343,3.399,mismatch,
서울국제고등학교,서울특별시 종로구 성균관로13길 40,37.5899501,126.9966584,37.5917911485864,126.995490680124,0.229,match,
문정고등학교,서울특별시 송파구 송이로34길 62,37.484986,127.1297414,37.4851784987927,127.126692082604,0.27,match,
세종과학고등학교,서울특별시 구로구 오리로21길 79,37.4980034,126.8265215,37.4975693967975,126.827351739435,0.088,match,
구현고등학교,서울특별시 구로구 경인로53가길 17,37.5027344,126.8744151,37.5022832205782,126.874418207198,0.05,match,
삼각산고등학교,서울특별시 강북구 삼양로19길 40,37.6160959,127.020536,37.6162857334914,127.020107911458,0.043,match,
신도림고등학교,서울특별시 구로구 경인로67길 159,37.5119755,126.888113,37.5140629233737,126.88208378322,0.58,minor,
강일고등학교,서울특별시 강동구 아리수로98길 40,37.563462,127.1787012,37.5638280994729,127.177903473129,0.081,match,
성수고등학교,서울특별시 성동구 서울숲길 18,37.5479512,127.0409101,37.5473418143935,127.038253431317,0.244,match,
문현고등학교,서울특별시 송파구 충민로 115,37.4811568,127.1289582,37.4813135489878,127.128762268141,0.025,match,
진관고등학교,서울특별시 은평구 진관4로 26,37.6432684,126.924422,37.643338571257,126.924382489033,0.009,match,
구암고등학교,서울특별시 관악구 성현로 57,37.4912735,126.9517667,37.4925540129161,126.950219161074,0.197,match,
신도고등학교,서울특별시 은평구 통일로 961,37.6290814,126.9184822,37.6291325083008,126.918748608965,0.024,match,
해성여자고등학교,서울특별시 동대문구 전농로20길 31,37.5812876,127.0567267,37.5818725994505,127.056976879173,0.069,match,
솔샘고등학교,서울특별시 강북구 인수봉로 39,37.6236122,127.0122285,37.6237648476803,127.012068855446,0.022,match,
선사고등학교,서울특별시 강동구 고덕로25길 17,37.5564766,127.1358209,37.5563158751807,127.13577562154,0.018,match,
잠일고등학교,서울특별시 송파구 백제고분로 21,37.5144002,127.0825057,37.5145543759031,127.082367731592,0.021,match,
휘봉고등학교,서울특별시 동대문구 한천로 290,37.5864563,127.068514,37.5863723553049,127.068940658438,0.039,match,
수명고등학교,서울특별시 강서구 수명로2길 15,37.5498611,126.8247971,37.5497618629354,126.824766247612,0.011,match,
은평고등학교,서울특별시 은평구 갈현로15길 47,37.606514,126.9098054,37.6091520473272,126.905808015137,0.458,minor,
서울공연예술고등학교,서울특별시 구로구 오리로22나길 16-26,37.500563,126.8313665,37.4999306587647,126.832608691425,0.13,match,
가재울고등학교,서울특별시 서대문구 수색로 100-35,37.5759235,126.9023424,37.5743637013203,126.909529666957,0.657,minor,
하나고등학교,서울특별시 은평구 연서로 535,37.6413738,126.9369373,37.6416375903135,126.936930247565,0.029,match,
금호고등학교,서울특별시 성동구 금호로 118,37.5518947,127.0236153,37.5536214995345,127.023433782844,0.193,match,
도선고등학교,서울특별시 성동구 마장로 156,37.5676976,127.0247771,37.5668439494,127.026995731182,0.217,match,
덕수고등학교(일반고),서울특별시 송파구 위례북로 10,37.4852041,127.1468731,37.4855916213524,127.1470595726,0.046,match,
부산대학교사범대학부설고등학교,부산광역시 금정구 기찰로22번길 30,35.2328266,129.0945836,35.2328182547033,129.095653329749,0.097,match,
부산기계공업고등학교,부산광역시 해운대구 해운대로 569,35.1788679,129.1947682,35.1618414608083,129.152898310746,4.251,mismatch,
부산해사고등학교,부산광역시 영도구 해양로 425,35.099081,129.0570507,35.0741904987322,129.077017514963,3.311,mismatch,
가야고등학교,부산광역시 부산진구 엄광로 152,35.1480137,129.0321103,35.1463026445708,129.031087722149,0.212,match,
개금고등학교,부산광역시 부산진구 백양대로208번길 71,35.1616316,129.025316,35.1608770202722,129.025639631061,0.089,match,
건국고등학교,부산광역시 사하구 승학로17번길 76-8,35.1078902,128.9689848,35.109528077097,128.969616396909,0.191,match,
경남고등학교,부산광역시 서구 망양로111번길 65,35.1186093,129.0199159,35.1201981032821,129.020040379862,0.177,match,
경남공업고등학교,부산광역시 부산진구 전포대로175번길 22,35.1522202,129.0639445,35.1533482395584,129.063638749901,0.128,match,
부경고등학교,부산광역시 서구 망양로33번길 12,35.1137666,129.0130419,35.1157787998319,129.013306455898,0.225,match,
경남여자고등학교,부산광역시 동구 수정중로 29,35.1307679,129.0446791,35.132923842459,129.043948923334,0.249,match,
경성전자고등학교,부산광역시 서구 꽃마을로 25,35.1192279,129.0113183,35.1165992487118,129.012459110358,0.31,minor,
경원고등학교,부산광역시 부산진구 백양관문로 40,35.1648626,129.0292192,35.1637102536895,129.031887110437,0.274,match,
경일고등학교,부산광역시 강서구 영강길 153-42,35.1115282,128.9238181,35.1124823631391,128.922414839467,0.166,match,
경혜여자고등학교,부산광역시 북구 시랑로21번길 138,35.204949,129.0119281,35.2041876060598,129.010503832856,0.155,match,
계성여자고등학교,부산광역시 연제구 해맞이로109번길 47,35.1839167,129.069387,35.182975828728,129.067865696036,0.173,match,
광명고등학교,부산광역시 영도구 와치로 131,35.0756379,129.0695285,35.0836654934396,129.064604543853,0.999,minor,
구덕고등학교,부산광역시 사상구 학감대로 81,35.1532571,128.9903584,35.1384271633606,128.990746329752,1.649,mismatch,
금성고등학교,부산광역시 동구 증산로 83,35.1333034,129.0490814,35.1346371315836,129.051509238523,0.266,match,
금정고등학교,부산광역시 동래구 명장로63번길 60-14,35.2082184,129.1051837,35.2077123231346,129.107080457764,0.181,match,
금정여자고등학교,부산광역시 금정구 서부로76번길 21,35.2194728,129.1002431,35.2202615713905,129.101147401397,0.12,match,
금샘고등학교,부산광역시 금정구 서금로 75,35.2191991,129.1057986,35.221733591341,129.107247055358,0.311,minor,
기장고등학교,부산광역시 기장군 기장읍 차성서로 77,35.2395148,129.2092841,35.2401514766295,129.209025582923,0.075,match,
낙동고등학교,부산광역시 북구 의성로47번길 23,35.216559,129.0103017,35.2170901353195,129.009602280235,0.087,match,
남산고등학교,부산광역시 금정구 남산로 66,35.2676518,129.0855879,35.2680835826317,129.08590128832,0.056,match,
남성여자고등학교,부산광역시 중구 샘길 14,35.1065892,129.0345404,35.1057147891365,129.03441205823,0.098,match,
내성고등학교,부산광역시 금정구 서동로31번길 11,35.2201641,129.093282,35.2213830204858,129.092745377557,0.144,match,
다대고등학교,부산광역시 사하구 다대낙조2길 199,35.0522408,128.9609504,35.0531367888807,128.969849941387,0.816,minor,
대광고등학교,부산광역시 사하구 동매로 135,35.1011402,128.9730428,35.1012761461933,128.97257230098,0.045,match,
대덕여자고등학교,부산광역시 사상구 백양대로804번길 42-55,35.1791452,128.991182,35.179445198582,128.993382622707,0.203,match,
대동고등학교,부산광역시 사하구 을숙도대로709번길 27,35.0861894,128.9837373,35.0873647967419,128.984239087976,0.138,match,
대명여자고등학교,부산광역시 동래구 시실로 135,35.2180506,129.0845948,35.212108309045,129.096218674288,1.246,mismatch,
대양고등학교,부산광역시 남구 지게골로 128-27,35.1330342,129.0763507,35.1333823601664,129.073979970819,0.219,match,
대연고등학교,부산광역시 남구 조각공원로 20,35.1305364,129.1014442,35.1288918685055,129.102093439857,0.192,match,
세연고등학교,부산광역시 남구 진남로 82-19,35.1455545,129.075735,35.1396493004398,129.085826002461,1.128,mismatch,
대진전자통신고등학교,부산광역시 금정구 수림로 92,35.2400569,129.0820923,35.2415054898132,129.081805199513,0.163,match,
부산마케팅고등학교,부산광역시 부산진구 봉수로 13,35.1509468,129.0708881,35.1510804365952,129.07045186954,0.042,match,
덕문고등학교,부산광역시 강서구 동선길 172,35.0436725,128.830071,35.0510819486058,128.828940032842,0.83,minor,
덕문여자고등학교,부산광역시 수영구 연수로310번길 114,35.1710286,129.1036151,35.1677443933781,129.103648428619,0.365,minor,
데레사여자고등학교,부산광역시 동구 정공단로47번길 14,35.1371008,129.0549543,35.1373528261247,129.054703048223,0.036,match,
동래고등학교,부산광역시 동래구 충렬대로285번길 22,35.2006299,129.0917057,35.2009008282394,129.092702460617,0.095,match,
동래여자고등학교,부산광역시 금정구 체육공원로 20,35.29173,129.1110556,35.2470423417948,129.098197198652,5.104,mismatch,
동래원예고등학교,부산광역시 동래구 금강로 43,35.2204136,129.0804531,35.2146542412974,129.075498159706,0.783,minor,
삼정고등학교,부산광역시 북구 시랑로118번길 53,35.1938049,129.0100047,35.1936008195928,129.010057451757,0.023,match,
동명공업고등학교,부산광역시 남구 신선로 410,35.1223444,129.0992026,35.1208330965154,129.101318490793,0.255,match,
동아고등학교,부산광역시 사하구 괴정로244번길 63,35.0971845,128.9884965,35.0934092807155,128.984428430078,0.56,minor,
동아공업고등학교,부산광역시 사하구 괴정로260번길 79,35.0957053,128.9893272,35.0932200793315,128.988428636061,0.288,match,
동의고등학교,부산광역시 부산진구 양지로 50,35.1660106,129.0714119,35.1660753823041,129.071747803622,0.031,match,
동인고등학교,부산광역시 동래구 쇠미로31번길 34,35.1972273,129.0525274,35.1985219327927,129.050996855642,0.2,match,
동주여자고등학교,부산광역시 중구 광복중앙로 18,35.1009844,129.0310242,35.1009588637352,129.03135389875,0.03,match,
동천고등학교,부산광역시 남구 못골번영로 105,35.1405654,129.0889085,35.1443372223072,129.08680425263,0.461,minor,
세정고등학교,부산광역시 부산진구 양정로 88-12,35.170102,129.078705,35.169989719881,129.0793617858,0.061,match,
만덕고등학교,부산광역시 북구 함박봉로140번길 98-12,35.2024639,129.0336246,35.2018135399805,129.034693385066,0.121,match,
문현여자고등학교,부산광역시 남구 고동골로 86-41,35.1402616,129.0711497,35.1449758017668,129.073675023896,0.572,minor,
배정고등학교,부산광역시 남구 장고개로85번길 14-16,35.132416,129.0693902,35.132152049647,129.067413430466,0.182,match,
부산강서고등학교,부산광역시 강서구 공항로1309번길 96-7,35.2153461,128.9830427,35.2160984492453,128.982785117048,0.087,match,
부산고등학교,부산광역시 동구 초량로40번길 23,35.1208839,129.0370849,35.1214672531235,129.036629561679,0.077,match,
부산공업고등학교,부산광역시 남구 수영로196번길 80,35.1301759,129.0884968,35.1301664051132,129.087687741749,0.074,match,
부산국제고등학교,부산광역시 부산진구 백양관문로 105-70,35.1667468,129.0257907,35.1672262665457,129.023452565398,0.219,match,
부산남고등학교,부산광역시 강서구 명지국제10로 58,35.1005277,128.9246478,35.099579150692,128.923840379429,0.129,match,
부산남일고등학교,부산광역시 수영구 망미배산로48번길 85-23,35.177004,129.1031134,35.1785673218126,129.101172667207,0.248,match,
부산대저고등학교,부산광역시 강서구 공항로811번가길 46,35.1784592,128.957019,35.1775866767524,128.956293958325,0.117,match,
부산동고등학교,부산광역시 부산진구 동성로30번길 36,35.1530873,129.0703169,35.1532695409112,129.071252703527,0.087,match,
부산동성고등학교,부산광역시 부산진구 동성로 16,35.1606144,129.064973,35.1515169206016,129.069779256029,1.102,mismatch,
부산동여자고등학교,부산광역시 수영구 남천서로32번길 39,35.1462504,129.1068457,35.1460270177529,129.104728523319,0.194,match,
한국조형예술고등학교,부산광역시 남구 동명로169번길 38,35.1198917,129.1157148,35.1204879582664,129.116559713261,0.101,match,
부산디지털고등학교,부산광역시 중구 망양로 356,35.1109826,129.0299945,35.1088542935771,129.032446718094,0.325,minor,
부산소프트웨어마이스터고등학교,부산광역시 강서구 가락대로 1393,35.1642337,128.8936908,35.1877591469117,128.90340777453,2.761,mismatch,
개성고등학교,부산광역시 부산진구 당감서로 137,35.1621031,129.0364352,35.1676734965907,129.029952609767,0.855,minor,
부산서여자고등학교,부산광역시 서구 보수대로 202-6,35.114635,129.0191228,35.1134597451302,129.021315848258,0.238,match,
부산여자고등학교,부산광역시 사하구 낙동대로520번길 36,35.1107973,128.9661485,35.111500678131,128.967486378456,0.145,match,
부산여자상업고등학교,부산광역시 수영구 금련로 43,35.168297,129.0950743,35.1691433448659,129.096446709455,0.156,match,
부산영상예술고등학교,부산광역시 영도구 영상길 100,35.0849327,129.0435564,35.0851361332504,129.04491746878,0.126,match,
부산예술고등학교,부산광역시 금정구 체육공원로 20,35.29173,129.1110556,35.2470423417948,129.098197198652,5.104,mismatch,
부산외국어고등학교,부산광역시 연제구 고분로 144,35.1856421,129.0991663,35.1837067178737,129.097147677545,0.283,match,
부산자동차마이스터고등학교,부산광역시 사하구 하신중앙로3번나길 16,35.0771314,128.9626312,35.0755611241826,128.964307419799,0.232,match,
부산전자공업고등학교,부산광역시 동래구 금강로59번길 51,35.2154829,129.0744618,35.2156063065842,129.073058756179,0.128,match,
부산정보고등학교,부산광역시 부산진구 화지로 24,35.1828532,129.0657563,35.177523598521,129.064520463276,0.603,minor,
배정미래고등학교,부산광역시 남구 장고개로85번길 14-40,35.132416,129.0693902,35.1310932228008,129.068086834397,0.189,match,
부산정보관광고등학교,부산광역시 금정구 동현로 37,35.2229123,129.0924197,35.2239489683268,129.091910329086,0.124,match,
부산관광고등학교,부산광역시 서구 천마로 52,35.094804,129.0219853,35.0824926337918,129.022431637694,1.37,mismatch,
부산백양고등학교,부산광역시 북구 백양대로1016번길 64,35.1967988,128.997298,35.1969530123256,128.997545281054,0.028,match,
부산중앙고등학교,부산광역시 남구 진남로127번길 50,35.1383518,129.079284,35.1398659972405,129.078651080715,0.178,match,
부산중앙여자고등학교,부산광역시 동래구 온천천로 131,35.1985663,129.0816975,35.2078257856441,129.079906146817,1.042,mismatch,
부산진고등학교,부산광역시 부산진구 성지로94번길 54,35.1804103,129.0576068,35.1797887826329,129.055217552705,0.228,match,
부산진여자고등학교,부산광역시 부산진구 양정로 48,35.1688293,129.0752277,35.1695007378961,129.075097129338,0.076,match,
부산진여자상업고등학교,부산광역시 부산진구 진남로 524,35.1700295,129.0726359,35.1701017961024,129.072182723931,0.042,match,
부산체육고등학교,부산광역시 영도구 중리북로21번길 5,35.0722314,129.0662207,35.072054961404,129.064033975307,0.2,match,
부산컴퓨터과학고등학교,부산광역시 동구 초량로80번길 5,35.1219286,129.0346316,35.1206494512866,129.033452582136,0.178,match,
한얼고등학교,부산광역시 남구 고동골로69번가길 54,35.1470231,129.0707211,35.1461731551108,129.071148077479,0.102,match,
부일고등학교,부산광역시 사하구 감천로73번길 36,35.0913296,129.0000872,35.0907355433611,129.002560541061,0.235,match,
부일전자디자인고등학교,부산광역시 사하구 감천로73번길 36,35.0913296,129.0000872,35.0907355433611,129.002560541061,0.235,match,
부흥고등학교,부산광역시 해운대구 좌동순환로 248,35.174032,129.17957,35.1736737595282,129.180577028057,0.1,match,
브니엘고등학교,부산광역시 금정구 체육공원로 154,35.2782781,129.1089212,35.254853055713,129.103926382394,2.644,mismatch,
브니엘여자고등학교,부산광역시 금정구 체육공원로 154,35.2782781,129.1089212,35.254853055713,129.103926382394,2.644,mismatch,
브니엘예술고등학교,부산광역시 금정구 체육공원로 154,35.2782781,129.1089212,35.254853055713,129.103926382394,2.644,mismatch,
사직고등학교,부산광역시 동래구 쇠미로119번길 51,35.2031331,129.0578714,35.2036221372213,129.055978602166,0.18,match,
사직여자고등학교,부산광역시 동래구 쇠미로27번길 21,35.1967061,129.0534921,35.1968767285569,129.051419865971,0.189,match,
삼성여자고등학교,부산광역시 사하구 감천로43번길 45,35.0918325,128.9982359,35.09422497078,128.998232841977,0.266,match,
부산항공고등학교,부산광역시 사상구 백양대로768번길 115,35.175645,128.9909837,35.1732758328807,128.993318780949,0.338,minor,
성도고등학교,부산광역시 북구 시랑로132번길 87,35.1948853,129.0076753,35.1939754532565,129.005437912679,0.227,match,
성모여자고등학교,부산광역시 부산진구 양지로 29-1,35.1670908,129.0720602,35.1672613581424,129.072124023713,0.02,match,
영산고등학교,부산광역시 해운대구 반송순환로 142-1,35.2210066,129.1491818,35.2260586222154,129.155449657942,0.8,minor,
성일여자고등학교,부산광역시 사하구 다대로 161,35.0562304,128.9705275,35.0894995115559,128.980062642206,3.8,mismatch,
성지고등학교,부산광역시 남구 유엔로 39,35.1252966,129.0794004,35.1288101824735,129.080646180906,0.407,minor,
신도고등학교,부산광역시 해운대구 좌동순환로 64,35.1753766,129.1796906,35.1720794060515,129.167421350393,1.174,mismatch,
알로이시오전자기계고등학교,부산광역시 서구 감천로 237,35.0789144,129.0181575,35.0819442599684,129.015224329074,0.43,minor,
양운고등학교,부산광역시 해운대구 양운로 176,35.178201,129.1693089,35.1778130598256,129.170249641412,0.096,match,
양정고등학교,부산광역시 부산진구 양정로 46,35.1693955,129.0738224,35.1699094082471,129.075086884096,0.128,match,
영도여자고등학교,부산광역시 영도구 중리북로21번길 42,35.0722314,129.0662207,35.0735280615254,129.065994203813,0.146,match,
예문여자고등학교,부산광역시 남구 동명로92번길 76,35.1172351,129.107052,35.115528076916,129.107507680699,0.194,match,
용인고등학교,부산광역시 동래구 시실로107번길 37,35.2129104,129.0962452,35.2145123720842,129.094960415516,0.213,match,
이사벨고등학교,부산광역시 연제구 중앙대로 1197,35.194589,129.0782804,35.1935341410497,129.077938035705,0.121,match,
장안제일고등학교,부산광역시 기장군 장안읍 좌천2길 43,35.31318,129.24144,35.3145725999218,129.240774881745,0.166,match,
주례여자고등학교,부산광역시 사상구 가야대로366번길 146,35.1470325,129.0130203,35.1453651069352,129.013559706364,0.192,match,
지구촌고등학교,부산광역시 연제구 중앙대로 1197,35.194589,129.0782804,35.1935341410497,129.077938035705,0.121,match,
지산고등학교,부산광역시 금정구 오륜대로 50,35.2433039,129.0979145,35.243390139104,129.098813002596,0.082,match,
충렬고등학교,부산광역시 동래구 명장로106번길 26,35.2026546,129.1048296,35.2028624804247,129.109582068149,0.432,minor,
학산여자고등학교,부산광역시 동래구 충렬사로51번길 62,35.2044195,129.0985185,35.2064422850803,129.096549496864,0.287,match,
부산보건고등학교,부산광역시 영도구 절영로 163,35.0874283,129.0392884,35.0815219348064,129.041283833883,0.681,minor,
부산문화여자고등학교,부산광역시 해운대구 해운대로469번길 50,35.1698109,129.1403128,35.1659740667895,129.143533817713,0.517,minor,
해동고등학교,부산광역시 사하구 사하로141번나길 11-15,35.0942801,128.9915318,35.0928545362236,128.990423076467,0.188,match,
해운대고등학교,부산광역시 해운대구 우동3로11번길 43,35.1691038,129.1625055,35.1714876011605,129.162473755162,0.265,match,
부산해군과학기술고등학교,부산광역시 해운대구 해운대로469번길 96,35.1698163,129.1406593,35.1676379042866,129.144105903821,0.396,minor,
해운대관광고등학교,부산광역시 해운대구 우동2로60번길 38,35.1694711,129.1573481,35.1705255618567,129.157127834724,0.119,match,
해운대여자고등학교,부산광역시 해운대구 우동1로85번길 71,35.1691143,129.1540948,35.1696019502584,129.153023483112,0.111,match,
혜광고등학교,부산광역시 중구 망양로259번길 5,35.1089747,129.0259143,35.1087998229336,129.024605403666,0.121,match,
혜화여자고등학교,부산광역시 동래구 명장로 99,35.202468,129.1103978,35.202298317857,129.110726954313,0.035,match,
화명고등학교,부산광역시 북구 화명신도시로 169,35.2395525,129.0109129,35.2395467603932,129.010691451468,0.02,match,
금곡고등학교,부산광역시 북구 화명신도시로 236,35.237872,129.0112907,35.2442795913249,129.011806512138,0.714,minor,
부산과학고등학교,부산광역시 금정구 금샘로 455-1,35.2634047,129.0831261,35.2637806647236,129.083378928465,0.048,match,
분포고등학교,부산광역시 남구 분포로 57,35.1298032,129.1153634,35.1298197987824,129.115346308335,0.002,match,
반여고등학교,부산광역시 해운대구 반여로 136,35.1962658,129.1218222,35.2029591503392,129.126561239702,0.86,minor,
부산센텀여자고등학교,부산광역시 해운대구 해운대로469번길 50-1,35.1698163,129.1406593,35.1659188356084,129.144357825848,0.548,minor,
연제고등학교,부산광역시 연제구 쌍미천로30번길 31,35.1775774,129.0919971,35.1776171492482,129.091836282014,0.015,match,
해강고등학교,부산광역시 해운대구 해운대해변로 33,35.1608408,129.1633936,35.1641139192501,129.137539007121,2.378,mismatch,
금명여자고등학교,부산광역시 북구 양달로 101,35.2449619,129.0241322,35.2443477788751,129.024707633528,0.086,match,
센텀고등학교,부산광역시 해운대구 해운대로 246,35.1689647,129.1388184,35.1771034302477,129.12698062567,1.406,mismatch,
사상고등학교,부산광역시 사상구 강선로 24,35.1689652,128.9848463,35.1688803289896,128.985537202884,0.064,match,
명호고등학교,부산광역시 강서구 명지오션시티2로 97,35.0875626,128.8994715,35.0806288276976,128.900015759117,0.773,minor,
신정고등학교,부산광역시 기장군 정관읍 정관3로 14,35.3301579,129.1707286,35.3282657058463,129.166548096226,0.434,minor,
정관고등학교,부산광역시 기장군 정관읍 정관로 534,35.3575913,129.1431596,35.32211274772,129.169989888527,4.635,mismatch,
부산일과학고등학교,부산광역시 사하구 제석로 242,35.116461,128.9890209,35.1172215306386,128.988885179802,0.085,match,
시온식품과학고등학교,부산광역시 기장군 기장읍 죽성로 197,35.2427045,129.2296356,35.2471622775165,129.238841159534,0.972,minor,
경북대학교사범대학부설고등학교,대구광역시 중구 달구벌대로 2178,35.8624843,128.6057461,35.8625153964429,128.600613455598,0.463,minor,
강북고등학교,대구광역시 북구 태전로 100,35.9293255,128.5412771,35.9297281710843,128.541222800076,0.045,match,
경덕여자고등학교,대구광역시 서구 국채보상로34길 50,35.8660221,128.5498636,35.8635711902333,128.548938079566,0.285,match,
경명여자고등학교,대구광역시 북구 칠성로17길 18,35.8806088,128.5976865,35.880596503646,128.5981803366,0.045,match,
경북고등학교,대구광역시 수성구 청호로 300,35.8442573,128.6404284,35.8450148281611,128.639432131267,0.123,match,
경북공업고등학교,대구광역시 중구 남산로 20,35.8605291,128.5841284,35.8585136780021,128.583500812098,0.231,match,
경북기계공업고등학교,대구광역시 달서구 월배로 275,35.8130176,128.5207335,35.8221415096407,128.542624404503,2.219,mismatch,
경북여자고등학교,대구광역시 중구 중앙대로 288,35.8676791,128.5936032,35.858427156034,128.592200427922,1.037,mismatch,
경북여자상업고등학교,대구광역시 남구 효성로 35,35.8371214,128.5990288,35.8348763292027,128.59697330474,0.311,minor,
경북예술고등학교,대구광역시 남구 중앙대로47길 30,35.8544239,128.5883685,35.8545145059668,128.588788104437,0.039,match,
경상고등학교,대구광역시 북구 공항로15길 24,35.901138,128.6222972,35.901899175988,128.621533973775,0.109,match,
경상공업고등학교,대구광역시 남구 대경길 151,35.8450956,128.5740457,35.8452185999123,128.574196067661,0.019,match,
경상여자고등학교,대구광역시 북구 침산남로9길 164,35.891882,128.5822381,35.9005419608088,128.587843862453,1.087,mismatch,
경신고등학교,대구광역시 수성구 달구벌대로504길 34,35.854928,128.637296,35.8554437684204,128.637234640721,0.058,match,
경원고등학교,대구광역시 달서구 새방로 77,35.8606417,128.5214366,35.8654793232008,128.525679042467,0.66,minor,
경일여자고등학교,대구광역시 남구 효성로 37,35.8368007,128.5978154,35.8364464651014,128.596859803924,0.095,match,
경화여자고등학교,대구광역시 달서구 당산로30길 20,35.8484339,128.5497303,35.8484488026649,128.548643658111,0.098,match,
계성고등학교,대구광역시 서구 새방로 171,35.8666052,128.5286212,35.8711729754625,128.528344890432,0.509,minor,
대구보건고등학교,대구광역시 달서구 두류남길 10,35.8571297,128.5702806,35.8580714222467,128.572550728,0.23,match,
구암고등학교,대구광역시 북구 태암남로11길 7,35.9278839,128.5533511,35.9262382174464,128.55320596806,0.183,match,
능인고등학교,대구광역시 수성구 무학로 207,35.83158,128.6326158,35.8321041779971,128.633053090921,0.07,match,
다사고등학교,대구광역시 달성군 다사읍 달구벌대로 839,35.8675009,128.4239371,35.8611056694071,128.462760800976,3.57,mismatch,
달서고등학교,대구광역시 달성군 하빈면 하빈로 118,35.8851198,128.4223345,35.8862069374882,128.421351238375,0.15,match,
달성고등학교,대구광역시 서구 달구벌대로 1725,35.8622524,128.5721394,35.858931855436,128.55534277257,1.558,mismatch,
대구소프트웨어마이스터고등학교,대구광역시 달성군 구지면 창리로11길 93,35.6603704,128.4147906,35.6632508239323,128.413618885714,0.337,minor,
대건고등학교,대구광역시 달서구 월곡로94길 46,35.8334744,128.5296723,35.8339500429206,128.528113277579,0.15,match,
대구고등학교,대구광역시 남구 중앙대로 171,35.8553183,128.5906656,35.8491092264343,128.588735371503,0.712,minor,
대구공업고등학교,대구광역시 동구 대현로 135,35.8826344,128.6091109,35.8832126690012,128.614170208485,0.46,minor,
대구과학고등학교,대구광역시 수성구 동대구로 154,35.8449652,128.6256471,35.8446789970497,128.625490351577,0.035,match,
대구남산고등학교,대구광역시 수성구 신천동로 364,35.8293155,128.6083224,35.8571952623461,128.608759447996,3.1,mismatch,
대구하이텍고등학교,대구광역시 달서구 학산남로 50,35.824801,128.5382391,35.8231201109359,128.538523508704,0.189,match,
대구일마이스터고등학교,대구광역시 동구 효동로 48,35.8819184,128.6449034,35.8820623992357,128.647511202808,0.235,match,
대구동부고등학교,대구광역시 동구 반야월북로 199,35.8788553,128.7049675,35.8742902325569,128.719072223198,1.368,mismatch,
대구상원고등학교,대구광역시 달서구 월배로 241,35.8290506,128.5493222,35.8216848108127,128.539405222297,1.213,mismatch,
대구서부고등학교,대구광역시 서구 국채보상로53길 32,35.8727255,128.5586547,35.8736530943737,128.560200709801,0.173,match,
대구과학기술고등학교,대구광역시 서구 당산로 228,35.8556253,128.5482461,35.8574928211327,128.548296421862,0.208,match,
대명고등학교,대구광역시 남구 현충로40길 50,35.8496284,128.5839769,35.849020546315,128.583206861657,0.097,match,
대구여자고등학교,대구광역시 수성구 달구벌대로488길 17,35.8563524,128.6301382,35.8565845942105,128.629867216227,0.036,match,
대구외국어고등학교,대구광역시 달서구 선원로11길 21,35.8603814,128.4986989,35.860408651379,128.49806122559,0.058,match,
대구농업마이스터고등학교,대구광역시 수성구 달구벌대로 3170,35.8596104,128.6200954,35.8357803012495,128.700709109364,7.734,mismatch,
대구반도체마이스터고등학교,대구광역시 달서구 용산로 113,35.8480258,128.5306898,35.847932669099,128.529797092567,0.081,match,
대구관광고등학교,대구광역시 동구 동북로71길 37,35.890076,128.631469,35.8900744811506,128.632380805169,0.082,match,
대구제일고등학교,대구광역시 서구 국채보상로 384,35.868912,128.546366,35.8706847020914,128.57380837603,2.481,mismatch,
대구제일여자상업고등학교,대구광역시 달서구 대명천로 120,35.8381075,128.5550689,35.8407283505996,128.546013108611,0.867,minor,
대구혜화여자고등학교,대구광역시 수성구 교학로12길 62,35.849896,128.6479235,35.8496425147684,128.647240283138,0.068,match,
대륜고등학교,대구광역시 수성구 달구벌대로 2700,35.8524662,128.655678,35.851694459342,128.657025484602,0.149,match,
대구스마트고등학교,대구광역시 북구 관음로 303-12,35.953607,128.5531222,35.9556877799422,128.552984209347,0.232,match,
덕원고등학교,대구광역시 수성구 욱수길 37,35.8104602,128.7071582,35.8257275864869,128.706146383542,1.7,mismatch,
대원고등학교,대구광역시 달성군 화원읍 비슬로 2658,35.8065271,128.5071581,35.8066894818937,128.507076666012,0.019,match,
상서고등학교,대구광역시 달서구 야외음악당로 107,35.8528754,128.5563404,35.8464435433548,128.549888689315,0.922,minor,
상인고등학교,대구광역시 달서구 상인로 24,35.816436,128.545829,35.8104519805368,128.551297845505,0.828,minor,
성광고등학교,대구광역시 북구 검단로 150,35.8987787,128.6152267,35.9076995289669,128.624838201828,1.317,mismatch,
성서고등학교,대구광역시 달서구 선원로 221,35.8594036,128.5160176,35.8599435235789,128.516221522408,0.063,match,
성화여자고등학교,대구광역시 북구 복현로 140,35.8957282,128.6244323,35.9032298022275,128.620265007325,0.915,minor,
송현여자고등학교,대구광역시 달서구 송현로 156,35.826399,128.5430962,35.8311210606663,128.546215661212,0.596,minor,
시지고등학교,대구광역시 수성구 신매로 6,35.8300594,128.707305,35.8301204939117,128.707423250748,0.013,match,
신명고등학교,대구광역시 중구 국채보상로102길 48,35.8690332,128.586044,35.8683832787111,128.584034975917,0.195,match,
심인고등학교,대구광역시 달성군 다사읍 대실역남로1길 5,35.8522473,128.4664116,35.8531702289445,128.465259015972,0.146,match,
영남고등학교,대구광역시 달서구 월곡로 300,35.8028117,128.5507732,35.8207699873067,128.536304269574,2.385,mismatch,
영남공업고등학교,대구광역시 수성구 교학로 96,35.848392,128.6479197,35.8484281693699,128.646929267277,0.089,match,
영송여자고등학교,대구광역시 북구 태전로 92,35.9283834,128.5423197,35.9286168232652,128.54204128999,0.036,match,
영신고등학교,대구광역시 동구 팔공로50길 32,35.9208372,128.6469692,35.9200219710787,128.646299308808,0.109,match,
영진고등학교,대구광역시 북구 동북로57길 9,35.8939591,128.622632,35.8945239736684,128.621770476547,0.1,match,
오성고등학교,대구 수성구 달구벌대로522길 78,35.853496,128.6447593,35.8544644178506,128.644787048458,0.108,match,
와룡고등학교,대구광역시 달서구 선원로23북길 20,35.8612868,128.5050196,35.8613799259394,128.503679021607,0.121,match,
운암고등학교,대구광역시 북구 학정로 378,35.9387075,128.5637424,35.9388481568118,128.563752367393,0.016,match,
원화여자고등학교,대구광역시 달서구 당산로30길 30,35.8484339,128.5497303,35.8483599368148,128.549154844407,0.053,match,
정화여자고등학교,대구광역시 수성구 청호로84길 123,35.849427,128.6418477,35.8494077797374,128.641887798321,0.004,match,
조일고등학교,대구광역시 동구 신덕로 136-11,35.8810182,128.6883116,35.8820852002739,128.694455395039,0.566,minor,
대구중앙고등학교,대구광역시 수성구 신천동로 496,35.8610021,128.6091691,35.8664936239523,128.617306833215,0.954,minor,
청구고등학교,대구광역시 동구 국채보상로 827,35.8667664,128.6295229,35.8686548800844,128.620572150082,0.833,minor,
포산고등학교,대구광역시 달성군 현풍읍 비슬로 556-13,35.6828201,128.4466504,35.6908147912274,128.447955972602,0.897,minor,
현풍고등학교,대구광역시 달성군 현풍읍 비슬로 675,35.6774181,128.446303,35.6985295989671,128.438237075468,2.458,mismatch,
협성고등학교,대구광역시 남구 효성로 33,35.8354392,128.5980787,35.8348377464274,128.599027366816,0.109,match,
화원고등학교,대구광역시 달성군 화원읍 비슬로 2458,35.8020838,128.4949524,35.7972011660822,128.489271279653,0.747,minor,
효성여자고등학교,대구광역시 달서구 월곡로94길 48,35.8368422,128.5285237,35.8343042153267,128.528402378917,0.282,match,
대구체육고등학교,대구광역시 북구 칠곡중앙대로136길 29,35.9546804,128.5658704,35.9587974351305,128.557717293391,0.865,minor,
대곡고등학교,대구광역시 달서구 도원남로 80,35.8036194,128.5370491,35.8032373605879,128.536857027982,0.046,match,
성산고등학교,대구광역시 달서구 새방로7길 33,35.8625307,128.5205943,35.862243570024,128.520048121576,0.059,match,
학남고등학교,대구광역시 북구 학남로 78,35.9491183,128.5685653,35.9462958924299,128.569197723229,0.319,minor,
도원고등학교,대구광역시 달서구 미리샘길 52,35.8065009,128.543546,35.8052765883913,128.545488145215,0.222,match,
강동고등학교,대구광역시 동구 금강로 65,35.8648077,128.7284047,35.8659583996144,128.729612697864,0.168,match,
동문고등학교,대구광역시 수성구 효행로 17,35.8753585,128.6522056,35.8773014763995,128.65103192466,0.241,match,
수성고등학교,대구광역시 수성구 용학로28길 36,35.8206228,128.6274746,35.8212765316999,128.625465968216,0.195,match,
대진고등학교,대구광역시 달서구 화암로73길 15,35.8073542,128.5197418,35.8057301713616,128.518883837831,0.196,match,
매천고등학교,대구광역시 북구 매전로 70,35.9114711,128.5475167,35.9115943313387,128.547237077477,0.029,match,
호산고등학교,대구광역시 달서구 달서대로109길 86,35.8483482,128.4827962,35.8490572957452,128.481807116763,0.119,match,
칠성고등학교,대구광역시 북구 칠성로 13,35.879326,128.5962338,35.8806072780923,128.591261530318,0.47,minor,
대구일과학고등학교,대구광역시 동구 경안로 987,35.8861806,128.7223681,35.8865628216345,128.72269987085,0.052,match,
비슬고등학교,대구광역시 달성군 현풍읍 테크노북로 100,35.6964955,128.4543067,35.6956291563557,128.455013762329,0.116,match,
대구공업고등학교 테크노폴리스 캠퍼스,대구광역시 달성군 유가읍 유가길 46,35.6680221,128.4543829,35.6701082862796,128.454898049094,0.237,match,
군위고등학교,대구광역시 군위군 군위읍 군청로 254-6,36.2331028,128.5707986,36.2454746255496,128.569789933564,1.379,mismatch,
군위정보고등학교,대구광역시 군위군 의흥면 읍내길 89-32,36.1742737,128.7217795,36.1747799255299,128.721116591042,0.082,match,
인천해사고등학교,인천광역시 중구 월미로 338,37.4689228,126.6004809,37.4683065766768,126.602920046815,0.226,match,
가정고등학교,인천광역시 서구 서달로 162,37.5020833,126.6782366,37.5132136571325,126.679863856962,1.246,mismatch,
강남영상미디어고등학교,인천광역시 강화군 길상면 강화남로 57,37.6416201,126.479264,37.6416736340845,126.479124824856,0.014,match,
강화고등학교,인천광역시 강화군 강화읍 고비고개로 20,37.7370018,126.4476132,37.7480284562792,126.473813764116,2.61,mismatch,
검단고등학교,인천광역시 서구 검단로540번길 7,37.6036877,126.6648203,37.6038622513597,126.664741443978,0.021,match,
인천보건고등학교,인천광역시 서구 서달로 58-16,37.5020833,126.6782366,37.5053298584352,126.681549196505,0.464,minor,
계산고등학교,인천광역시 계양구 주부토로 588,37.547152,126.7294395,37.547100280687,126.729588305245,0.014,match,
계산공업고등학교,인천광역시 계양구 도두리로 47,37.5344553,126.7394081,37.5342172434634,126.739839576739,0.046,match,
계산여자고등학교,인천광역시 계양구 계산새로 131,37.5379639,126.7311874,37.5382531785503,126.741894336344,0.945,minor,
계양고등학교,인천 계양구 계양문화로 177,37.54191,126.7438905,37.5419311320668,126.743876538689,0.003,match,
광성고등학교,인천광역시 중구 참외전로244번길 47,37.4677706,126.6388792,37.467612331148,126.639746440133,0.079,match,
교동고등학교,인천광역시 강화군 교동면 교동남로 77,37.7707701,126.2972522,37.7784626831111,126.284316914567,1.423,mismatch,
산마을고등학교,인천광역시 강화군 양도면 강화남로1002번길 73-29,37.6863588,126.4254392,37.6863625703373,126.425565311139,0.011,match,
대인고등학교,인천광역시 서구 서곶로 446,37.58174,126.6756369,37.5580260208991,126.678609390799,2.65,mismatch,
재능고등학교,인천광역시 동구 재능로 178,37.4736656,126.6513863,37.4755418406499,126.650464957886,0.224,match,
덕신고등학교,인천광역시 강화군 강화읍 고비고개로 45,37.7450869,126.4733711,37.7448794856797,126.47279903491,0.055,match,
덕적고등학교,인천광역시 옹진군 덕적면 덕적남로 15,37.2257795,126.1480651,37.2253805824012,126.1481953087,0.046,match,
동산고등학교,인천광역시 동구 동산로 58,37.470009,126.6498405,37.4730397740816,126.648893479667,0.347,minor,
동인천고등학교,인천광역시 남동구 만수로75번길 71-15,37.4662575,126.735346,37.4658306413741,126.73526821853,0.048,match,
명신여자고등학교,인천광역시 부평구 원적로 260,37.5041598,126.7062327,37.5046044778204,126.693927821366,1.087,mismatch,
인천금융고등학교,인천광역시 남동구 함박뫼로 438-9,37.4107081,126.7080726,37.4088469308239,126.711714130654,0.382,minor,
문일여자고등학교,인천광역시 남동구 구월로372번길 56,37.4525964,126.7317376,37.4524797808113,126.730657140825,0.096,match,
문학정보고등학교,인천광역시 미추홀구 소성로350번길 29,37.4365326,126.6859821,37.4357479370594,126.686966420411,0.123,match,
백석고등학교,인천광역시 서구 서곶로 701,37.5798604,126.6741675,37.5806035848726,126.67429208606,0.083,match,
부개여자고등학교,인천광역시 부평구 부흥로 433,37.4982887,126.7274426,37.4979041963466,126.7410315569,1.2,mismatch,
부광고등학교,인천광역시 부평구 화랑로 28,37.490469,126.7034007,37.4884197536492,126.703071381365,0.23,match,
부광여자고등학교,인천광역시 부평구 충선로 143,37.5020738,126.7354655,37.5026085039851,126.735575863631,0.06,match,
부평고등학교,인천광역시 부평구 부흥북로 43,37.5009211,126.7326456,37.5022740824988,126.727618820921,0.468,minor,
부평공업고등학교,인천광역시 부평구 주부토로 194,37.5131296,126.7259541,37.5125337805686,126.726792837058,0.099,match,
문곡고등학교,인천광역시 서구 청마로 52,37.5889001,126.671817,37.5884421808023,126.669651574761,0.197,match,
부평여자고등학교,인천광역시 부평구 부흥로243번길 44,37.4999511,126.7189394,37.5011518439188,126.71970618732,0.15,match,
인천미래생활고등학교,인천광역시 부평구 수변로 165,37.4955857,126.7418232,37.5005671213286,126.742684559787,0.559,minor,
한국글로벌셰프고등학교,인천광역시 강화군 내가면 강화서로 184,37.7131116,126.3909036,37.7117956320506,126.392810045566,0.223,match,
삼산고등학교,인천광역시 부평구 영성중로 54,37.5191421,126.7451121,37.5216109335519,126.745892731117,0.283,match,
서도고등학교,인천광역시 강화군 서도면 주문도길 173,37.6532115,126.2371503,37.6480376571339,126.252474588184,1.467,mismatch,
서운고등학교,인천광역시 계양구 아나지로 481,37.5255632,126.7358417,37.5269145380024,126.745747357758,0.886,minor,
서인천고등학교,인천광역시 서구 서곶로 475,37.58174,126.6756369,37.5610834396688,126.675771023421,2.297,mismatch,
석정여자고등학교,인천광역시 남동구 방축로469번길 27,37.4683391,126.6944022,37.4686650712884,126.694191974903,0.041,match,
선인고등학교,인천광역시 미추홀구 석정로 165,37.4663842,126.6854032,37.4739644136398,126.651978806147,3.068,mismatch,
인천비즈니스고등학교,인천광역시 미추홀구 장고개로 31,37.4722623,126.6677921,37.4721296898731,126.666920381973,0.078,match,
세일고등학교,인천광역시 부평구 원적로 245,37.5032439,126.7203647,37.5061650370624,126.693068913751,2.43,mismatch,
송도고등학교,인천광역시 연수구 독배로 91,37.4236281,126.6448756,37.4285750058272,126.643815519083,0.558,minor,
숭덕여자고등학교,인천광역시 남동구 만수로73번길 20-23,37.4623693,126.7355573,37.4642821062689,126.733917139731,0.257,match,
신명여자고등학교,인천광역시 남동구 용천로205번길 42,37.4690027,126.712053,37.4692303730717,126.713018429043,0.089,match,
연수고등학교,인천광역시 연수구 원인재로 145,37.4114928,126.6799881,37.4117356219031,126.680127122488,0.03,match,
연수여자고등학교,인천광역시 연수구 먼우금로141번길 9,37.4122079,126.6711737,37.4110353526012,126.672329522216,0.166,match,
인천외국어고등학교,인천광역시 부평구 원적로 262,37.5041598,126.7062327,37.504731054759,126.695141959284,0.98,minor,
영화국제관광고등학교,인천광역시 동구 우각로 39,37.4710518,126.6396218,37.4713974525984,126.640395471845,0.078,match,
인천대중예술고등학교,인천광역시 미추홀구 석정로 165,37.4663842,126.6854032,37.4739644136398,126.651978806147,3.068,mismatch,
인천소방고등학교,인천광역시 미추홀구 석정로 165,37.4663842,126.6854032,37.4739644136398,126.651978806147,3.068,mismatch,
인명여자고등학교,인천광역시 미추홀구 문화로 11,37.4414636,126.6985074,37.4403708093314,126.697223442449,0.166,match,
인성여자고등학교,인천광역시 중구 홍예문로 39,37.4761371,126.6273831,37.4742394881969,126.62443499639,0.335,minor,
인일여자고등학교,인천광역시 중구 참외전로72번길 10,37.477721,126.628236,37.4779713568479,126.626309666114,0.172,match,
인제고등학교,인천광역시 남동구 석산로197번길 19,37.4617759,126.7140009,37.4613970126173,126.712465355027,0.142,match,
인천고등학교,인천광역시 미추홀구 경원대로 804,37.4658927,126.6900391,37.4529589309605,126.691305361048,1.443,mismatch,
인천공항고등학교,인천광역시 중구 신도시북로 20,37.4974344,126.4860788,37.4976310219629,126.485926987914,0.026,match,
인천과학고등학교,인천광역시 중구 영종대로277번길 74-37,37.4884222,126.5048715,37.491955551461,126.508257082261,0.494,minor,
인천기계공업고등학교,인천광역시 미추홀구 한나루로 545,37.4562212,126.6704857,37.4568564252104,126.668356626792,0.201,match,
인천남고등학교,인천광역시 남동구 석정로551번길 41,37.4668957,126.6969033,37.4679149411991,126.696552610581,0.117,match,
인천대건고등학교,인천광역시 연수구 능허대로 437,37.4196324,126.6484038,37.4019878974932,126.665161888135,2.458,mismatch,
인천디자인고등학교,인천광역시 서구 대평로56번길 10,37.5489576,126.6704982,37.5480234158816,126.671685997038,0.147,match,
박문여자고등학교,인천광역시 연수구 송도과학로51번길 16,37.3827339,126.6660741,37.3827186025453,126.666428992873,0.031,match,
인천생활과학고등학교,인천광역시 연수구 함박뫼로 103,37.4231836,126.6775958,37.4239981561133,126.678330634067,0.111,match,
인천여자고등학교,인천광역시 연수구 비류대로506번길 14,37.4216173,126.6903169,37.422132735757,126.690530321905,0.06,match,
인천뷰티예술고등학교,인천광역시 연수구 원인재로 21,37.4166666,126.6883233,37.4031310797719,126.671966270628,2.086,mismatch,
인천여자상업고등학교,인천광역시 중구 인중로 146,37.4659798,126.6290397,37.4682112673219,126.628296457799,0.257,match,
인천예술고등학교,인천광역시 남동구 구월로115번길 36,37.4584901,126.7030964,37.4585401437136,126.703911237888,0.072,match,
인천전자마이스터고등학교,인천광역시 미추홀구 석정로 165,37.4663842,126.6854032,37.4739644136398,126.651978806147,3.068,mismatch,
인천반도체고등학교,인천광역시 중구 참외전로 192,37.4747661,126.6317201,37.4707028288195,126.636613152635,0.625,minor,
인천중앙여자고등학교,인천광역시 중구 샛골로 31,37.4668248,126.6418374,37.4653923983554,126.641810407435,0.159,match,
인천체육고등학교,인천광역시 서구 로봇랜드로 473,37.544919,126.6102473,37.5459250388863,126.609451187508,0.132,match,
인천해양과학고등학교,인천광역시 연수구 능허대로 71,37.3970185,126.6724837,37.4252497895545,126.640709504885,4.211,mismatch,
인평자동차고등학교,인천광역시 부평구 화랑로 111,37.490469,126.7034007,37.4922118035876,126.701994912124,0.23,match,
인하대학교사범대학부속고등학교,인천광역시 미추홀구 재넘이길123번길 29,37.4470777,126.660359,37.4459657058776,126.662866196854,0.254,match,
인항고등학교,인천광역시 미추홀구 매소홀로 135,37.4412505,126.6613949,37.4468142895118,126.640758061298,1.924,mismatch,
인화여자고등학교,인천광역시 미추홀구 석정로 165,37.4663842,126.6854032,37.4739644136398,126.651978806147,3.068,mismatch,
정석항공과학고등학교,인천광역시 미추홀구 인하로 100,37.447614,126.6533711,37.4514818862257,126.651350878024,0.466,minor,
제물포고등학교,인천광역시 중구 자유공원로 58-9,37.479248,126.6216211,37.4772693603834,126.623831836583,0.294,match,
제일고등학교,인천광역시 부평구 경인로759번길 28,37.4775894,126.7092963,37.4782859321285,126.708376297657,0.112,match,
인천바이오과학고등학교,인천광역시 연수구 용담로 12,37.4169625,126.6747055,37.4208228699308,126.668891229331,0.669,minor,
학익고등학교,인천광역시 미추홀구 한나루로 358,37.4562212,126.6704857,37.4399844048933,126.662350186313,1.943,mismatch,
학익여자고등학교,인천광역시 미추홀구 주승로52번길 8,37.4419667,126.6763122,37.4438193290215,126.67539006052,0.222,match,
한국주얼리고등학교,인천광역시 서구 서곶로 693-1,37.58174,126.6756369,37.5816487241961,126.673050346398,0.228,match,
인천효성고등학교,인천광역시 계양구 새벌로171번길 21,37.5323352,126.7159386,37.5314673601179,126.714997163624,0.127,match,
가림고등학교,인천광역시 서구 원적로 58,37.4958786,126.6833316,37.4926192873524,126.681201516564,0.408,minor,
작전여자고등학교,인천광역시 계양구 주부토로426번길 15,37.5317623,126.7289853,37.5321355616862,126.730077470934,0.105,match,
안남고등학교,인천광역시 계양구 아나지로308번길 9,37.5247872,126.7259905,37.5250366580519,126.727127468476,0.104,match,
작전고등학교,인천광역시 계양구 봉오대로729번길 27,37.5317687,126.7305383,37.532855542666,126.730389967976,0.122,match,
옥련여자고등학교,인천광역시 연수구 옥골로 77,37.431464,126.6499798,37.4319203675689,126.64899411196,0.101,match,
가좌고등학교,인천광역시 서구 장고개로287번길 24,37.4893188,126.6826392,37.4896461778657,126.680909645296,0.157,match,
인천예일고등학교,인천광역시 계양구 박촌로 23,37.5541917,126.7423666,37.5542617390827,126.741405689405,0.085,match,
부개고등학교,인천광역시 부평구 수변로57번길 36,37.4918093,126.7384742,37.4922189447159,126.738046602648,0.059,match,
인천산곡고등학교,인천광역시 부평구 원적로416번길 25,37.5025651,126.7125315,37.5031627596138,126.712901944906,0.074,match,
인천부흥고등학교,인천광역시 부평구 수변로57번길 61,37.4918093,126.7384742,37.4912114136485,126.736656345761,0.174,match,
도림고등학교,인천광역시 남동구 서창남로 8,37.4257899,126.7488018,37.4208931546745,126.752939821234,0.656,minor,
인천원당고등학교,인천광역시 서구 고산로40번길 30,37.5970664,126.7031094,37.5968927669711,126.704822583562,0.152,match,
신송고등학교,인천광역시 연수구 신송로6번길 56,37.3918068,126.6596458,37.3920073967618,126.659664409566,0.022,match,
인천영선고등학교,인천광역시 부평구 체육관로 179,37.5128192,126.7445244,37.5159452889078,126.743903954084,0.352,minor,
인천마전고등학교,인천광역시 서구 마전로 74,37.6115853,126.6634427,37.6108219253615,126.664332833204,0.116,match,
인천논현고등학교,인천광역시 남동구 청능대로611번길 54,37.4031143,126.7270004,37.4039186938338,126.726998731716,0.089,match,
인천진산과학고등학교,인천광역시 부평구 굴포로 194-9,37.5118982,126.7244643,37.5132724150357,126.743713449345,1.705,mismatch,
인천국제고등학교,인천광역시 중구 영종대로277번길 74-40,37.4892106,126.5059331,37.4897139817453,126.509411779505,0.312,minor,
인천만수고등학교,인천광역시 남동구 장승로 91,37.4455445,126.735838,37.4471394062409,126.742423305772,0.608,minor,
인천신현고등학교,인천광역시 서구 염곡로 399,37.5191734,126.6689302,37.5204527607224,126.667959628603,0.166,match,
인천남동고등학교,인천광역시 남동구 은봉로 283,37.4128606,126.6939677,37.4060406325088,126.721071546299,2.511,mismatch,
미추홀외국어고등학교,인천광역시 남동구 에코중앙로 130,37.3879936,126.7220228,37.3896505554698,126.724220620892,0.268,match,
인천상정고등학교,인천광역시 부평구 경원대로 1109,37.4911594,126.7276799,37.4807189773685,126.696380995833,2.996,mismatch,
인천세원고등학교,인천광역시 계양구 장제로 966,37.5517676,126.7444422,37.5516139640216,126.744709250169,0.029,match,
인천고잔고등학교,인천광역시 남동구 에코중앙로 117,37.3879936,126.7220228,37.3892221517693,126.72265448484,0.148,match,
인천해송고등학교,인천광역시 연수구 해송로 20,37.3825767,126.6459914,37.3825401579274,126.645868764869,0.012,match,
인천송천고등학교,인천광역시 남동구 앵고개로815번길 59,37.396006,126.7229195,37.3958212468667,126.721898480898,0.093,match,
인천초은고등학교,인천광역시 서구 청라에메랄드로 42,37.5285788,126.6564757,37.5292910878957,126.657138170242,0.098,match,
인천연송고등학교,인천광역시 연수구 컨벤시아대로42번길 72,37.4029754,126.6466379,37.4031938348093,126.646532262747,0.026,match,
인천영종고등학교,인천광역시 중구 영종대로278번길 34,37.4855094,126.5007217,37.4853189947658,126.501682470053,0.087,match,
인천해원고등학교,인천광역시 서구 청라사파이어로140번길 25,37.5280521,126.627597,37.5281676387204,126.627565971795,0.013,match,
인천하늘고등학교,인천광역시 중구 영종대로277번길 117,37.4884222,126.5048715,37.4954657122268,126.507080294999,0.807,minor,
인천영흥고등학교,인천광역시 옹진군 영흥면 내동로 107,37.265903,126.4796796,37.2652065925535,126.479420067284,0.081,match,
인천과학예술영재학교,인천광역시 연수구 아카데미로 192,37.3816009,126.6303713,37.3819993335559,126.630139563385,0.049,match,
인천포스코고등학교,인천광역시 연수구 컨벤시아대로42번길 50,37.40153,126.6486361,37.4014662159258,126.648130019538,0.045,match,
인천중산고등학교,인천광역시 중구 은하수로 142,37.4977718,126.5699122,37.4979686732944,126.569851115127,0.023,match,
인천아라고등학교,인천광역시 서구 서로2로 62,37.5849237,126.7024672,37.5871265593399,126.703948027093,0.278,match,
인천이음고등학교,인천광역시 서구 이음1로 469,37.5998978,126.7125079,37.6006044826511,126.710462626389,0.197,match,
인천운남고등학교,인천광역시 중구 운남동,37.4815998,126.5174514,37.4891707175436,126.527232917984,1.206,mismatch,
전남대학교사범대학부설고등학교,광주광역시 북구 용봉로 45,35.1729406,126.9020284,35.1729465031535,126.901101801289,0.084,match,
고려고등학교,광주광역시 북구 설죽로 369,35.1927535,126.8973484,35.1925390144904,126.898285385921,0.088,match,
광덕고등학교,광주광역시 서구 화정로 202,35.1451981,126.8794771,35.1446868977126,126.878496666282,0.106,match,
광일고등학교,광주광역시 광산구 고봉로 812,35.2446487,126.7401537,35.2206283826609,126.741950812541,2.676,mismatch,
광주경신여자고등학교,광주광역시 북구 금호로40번길 40,35.173219,126.8900313,35.1747383939757,126.892624404685,0.29,match,
광주고등학교,광주광역시 동구 중앙로 302,35.148699,126.9136245,35.1594787737076,126.920997540369,1.373,mismatch,
광주과학고등학교,광주광역시 북구 첨단과기로 215,35.2263238,126.8463292,35.228159267962,126.848196092892,0.265,match,
광주공업고등학교,광주광역시 북구 설죽로315번길 14,35.1881756,126.8964545,35.1891320023514,126.895135840227,0.16,match,
광주대동고등학교,광주광역시 서구 전평길 50,35.1197159,126.8494114,35.1193702099954,126.84955883148,0.041,match,
광주동성고등학교,광주광역시 남구 서문대로627번길 20,35.1156774,126.8966307,35.1153621264246,126.893451593707,0.291,match,
광주동신고등학교,광주광역시 북구 동문대로 50,35.1693793,126.9219924,35.1694378564351,126.92234609245,0.033,match,
광주동신여자고등학교,광주광역시 북구 동문대로 50,35.1693793,126.9219924,35.1694378564351,126.92234609245,0.033,match,
광주서석고등학교,광주광역시 서구 화정로253번길 27,35.1495519,126.8826668,35.1492506672679,126.881314991256,0.127,match,
광주석산고등학교,광주광역시 남구 백운로26번길 20,35.1370152,126.9087307,35.1395772061223,126.90836623976,0.287,match,
광주수피아여자고등학교,광주광역시 남구 백서로 13,35.1395085,126.9155513,35.1371931710119,126.911613966574,0.441,minor,
광주숭일고등학교,광주광역시 북구 모룡대길 40,35.2163757,126.8962788,35.2178117816288,126.896814150293,0.167,match,
광주여자고등학교,광주광역시 서구 상무대로1014번길 43,35.1494777,126.872648,35.148187748175,126.873183932493,0.151,match,
광주여자상업고등학교,광주광역시 남구 서문대로627번길 20,35.1156774,126.8966307,35.1153621264246,126.893451593707,0.291,match,
광주예술고등학교,광주광역시 북구 서하로 72,35.1874906,126.8889408,35.1870124590283,126.887882967052,0.11,match,
광주인성고등학교,광주광역시 남구 서문대로 390,35.1029005,126.8805525,35.1028150204428,126.881330128591,0.071,match,
광주자연과학고등학교,광주광역시 북구 능안로 30,35.186838,126.9171039,35.1908427373082,126.915495922118,0.469,minor,
광주소프트웨어마이스터고등학교,광주광역시 광산구 상무대로 312,35.1427681,126.8003282,35.1427689679488,126.800771954215,0.04,match,
광주전자공업고등학교,광주광역시 광산구 첨단중앙로 7,35.2229199,126.8406674,35.204856045971,126.84076814963,2.009,mismatch,
광주자동화설비마이스터고등학교,광주광역시 광산구 사암로92번길,35.1529592,126.8138559,35.1524569296202,126.810991573413,0.266,match,
광주제일고등학교,광주광역시 북구 독립로237번길 33,35.1533278,126.9070089,35.1523460583173,126.907047693296,0.109,match,
금호중앙여자고등학교,광주광역시 북구 금호로 100,35.1763028,126.8856187,35.1785968979255,126.885512578982,0.255,match,
광주진흥고등학교,광주광역시 광산구 왕버들로 307,35.1997423,126.8314443,35.196436007411,126.841688616317,1.001,mismatch,
광주체육고등학교,광주광역시 북구 하서로 55,35.2350405,126.8891675,35.1825030471667,126.879416202916,5.909,mismatch,
국제고등학교,광주광역시 북구 설죽로 433,35.2140733,126.8977543,35.1991144593752,126.895612324385,1.675,mismatch,
금파공업고등학교,광주광역시 북구 금호로 80,35.1748665,126.8880754,35.1766316038616,126.887170590844,0.213,match,
금호고등학교,광주광역시 북구 금호로 100,35.1763028,126.8856187,35.1785968979255,126.885512578982,0.255,match,
대성여자고등학교,광주광역시 남구 서문대로663번길 37,35.1186254,126.896982,35.1182454473143,126.8940030376,0.274,match,
동아여자고등학교,광주광역시 남구 오방로 16-10,35.126684,126.9191099,35.1258474908771,126.922069874951,0.285,match,
동일미래과학고등학교,광주광역시 남구 천변좌로 604,35.1444016,126.9136479,35.1288698625964,126.927303715615,2.127,mismatch,
문성고등학교,광주광역시 남구 제석로 73,35.1195345,126.9067834,35.1204593851319,126.904988359537,0.193,match,
보문고등학교,광주광역시 광산구 어등대로529번길 37,35.1542063,126.7772952,35.1538630655337,126.776870489042,0.054,match,
살레시오고등학교,광주광역시 북구 모룡대길 67,35.2158455,126.8979101,35.2168875377596,126.892060067509,0.544,minor,
살레시오여자고등학교,광주광역시 동구 필문대로273번길 21,35.1450272,126.9301839,35.1469869206497,126.929642733996,0.223,match,
상무고등학교,광주광역시 서구 상무민주로32번길 28,35.1549276,126.8601416,35.1547928455718,126.859631935906,0.049,match,
서강고등학교,광주광역시 북구 서강로 1,35.1749518,126.8694969,35.1749928661466,126.868094977421,0.128,match,
서진여자고등학교,광주광역시 남구 서문대로742번길 20,35.1245976,126.8991842,35.1255597557698,126.899945603913,0.127,match,
설월여자고등학교,광주광역시 남구 천변좌로604번길 12,35.1284419,126.9273908,35.1261203872134,126.928594285005,0.28,match,
명진고등학교,광주광역시 광산구 수완로12번길 21,35.1873222,126.8302557,35.18744395418,126.829750805661,0.048,match,
송원고등학교,광주광역시 남구 송암로 73,35.1137826,126.8727011,35.1081845052901,126.873266442573,0.625,minor,
송원여자고등학교,광주광역시 남구 송암로 73,35.1137826,126.8727011,35.1081845052901,126.873266442573,0.625,minor,
숭덕고등학교,광주광역시 광산구 월계로 117-8,35.2134163,126.8439843,35.2145064376122,126.839325135641,0.44,minor,
숭의과학기술고등학교,광주광역시 남구 오방로 34-13,35.126684,126.9191099,35.1274347602546,126.923147176312,0.377,minor,
전남고등학교,광주광역시 서구 상무공원로 32,35.1474853,126.8436869,35.1474756132162,126.843732699207,0.004,match,
전남공업고등학교,광주광역시 광산구 왕버들로322번길 26,35.1937625,126.8441185,35.1935638071041,126.843113822031,0.094,match,
전남여자고등학교,광주광역시 동구 제봉로158번길 8,35.1518319,126.9198964,35.1508773347737,126.920400501517,0.116,match,
전남여자상업고등학교,광주광역시 북구 설죽로 433,35.2140733,126.8977543,35.1991144593752,126.895612324385,1.675,mismatch,
정광고등학교,광주광역시 광산구 소촌로 90-36,35.1539911,126.7952289,35.1551428697056,126.796028556336,0.147,match,
조선대학교부속고등학교,광주광역시 동구 의재로33번길 33,35.1346005,126.9318962,35.1350581534093,126.930809705681,0.111,match,
조선대학교여자고등학교,광주광역시 동구 지산로 36,35.1464719,126.9322565,35.1464868766097,126.93271311632,0.042,match,
호남삼육고등학교,광주광역시 남구 회서로 30,35.1302517,126.8938393,35.1289421003815,126.893465945771,0.15,match,
송원미래인재고등학교,광주광역시 남구 송암로 73,35.1137826,126.8727011,35.1081845052901,126.873266442573,0.625,minor,
운남고등학교,광주광역시 광산구 임방울대로165번길 17,35.176057,126.8138386,35.1754538646834,126.816305730701,0.234,match,
풍암고등학교,광주광역시 서구 풍암신흥로39번길 20,35.122285,126.866887,35.1229509810012,126.867401541994,0.088,match,
첨단고등학교,광주광역시 광산구 산월로 12-17,35.2067567,126.8379477,35.2067250781726,126.837907094827,0.005,match,
상일여자고등학교,광주광역시 서구 내방로 217,35.1586213,126.8644366,35.1588022802963,126.864629793352,0.027,match,
장덕고등학교,광주광역시 광산구 수등로 45,35.1855696,126.8119885,35.1859242523047,126.815342682223,0.307,minor,
수완고등학교,광주광역시 광산구 장덕로 155,35.1982099,126.8254949,35.1980692770292,126.825938604239,0.043,match,
문정여자고등학교,광주광역시 북구 능안로30번길 33,35.1878955,126.9186179,35.1891280895365,126.91946387318,0.157,match,
성덕고등학교,광주광역시 광산구 장덕로 75,35.195746,126.8175349,35.1958501457946,126.817489097422,0.012,match,
빛고을고등학교,광주광역시 북구 첨단연신로133번길 16,35.2099961,126.8615494,35.2107122151396,126.8623851771,0.11,match,
비아고등학교,광주광역시 광산구 첨단중앙로181번길 42-26,35.2198868,126.8316241,35.2227412370622,126.836415020641,0.539,minor,
대전생활과학고등학교,대전광역시 대덕구 동산초교로63번길 12,36.3496101,127.4224233,36.3498312996062,127.423062641674,0.062,match,
계룡디지텍고등학교,대전광역시 동구 소랑길 64,36.3368118,127.4339636,36.3376254914464,127.434474866587,0.101,match,
남대전고등학교,대전광역시 중구 보문로111번길 63,36.3122747,127.4294165,36.3107483668685,127.427819473213,0.222,match,
대덕고등학교,대전광역시 유성구 대덕대로556번길 158,36.386966,127.3810036,36.3875733895322,127.381684394947,0.091,match,
대덕소프트웨어마이스터고등학교,대전광역시 유성구 가정북로 76,36.3914961,127.3631904,36.3920263282383,127.36304191185,0.06,match,
대전대성고등학교,대전광역시 중구 목동로 23,36.332937,127.4072224,36.3319710025097,127.407077876817,0.108,match,
대전대성여자고등학교,대전광역시 동구 대성2길 20,36.3386302,127.4409398,36.3377260383797,127.44056173937,0.106,match,
대전고등학교,대전광역시 중구 대흥로 110,36.323592,127.4268869,36.3224305385687,127.423386008918,0.339,minor,
대전도시과학고등학교,대전광역시 유성구 진잠로42번길 35,36.2964234,127.320234,36.2975139176958,127.319944513339,0.124,match,
대전과학고등학교,대전광역시 유성구 과학로 46,36.3740021,127.3709521,36.3741946568515,127.371435752239,0.048,match,
대전관저고등학교,대전광역시 서구 관저북로 94,36.3107193,127.3379942,36.3108071066415,127.337763069506,0.023,match,
대전노은고등학교,대전광역시 유성구 노은동로 99,36.3641164,127.3212272,36.3693966879773,127.323215682417,0.614,minor,
대전대신고등학교,대전광역시 서구 오량1길 98,36.3096202,127.3802688,36.3089588095398,127.380049146103,0.076,match,
대전동산고등학교,대전광역시 중구 문화로 183,36.3113335,127.3937945,36.3161184162404,127.404491849602,1.096,mismatch,
동아마이스터고등학교,대전광역시 동구 충정로 97,36.3436358,127.4537684,36.3446130855869,127.454825677703,0.144,match,
대전둔산여자고등학교,대전광역시 서구 갈마역로 33,36.3534346,127.3735194,36.3529730275736,127.373283535546,0.056,match,
대전둔원고등학교,대전광역시 서구 대덕대로 101,36.3341722,127.3719437,36.3428313716734,127.373314440663,0.971,minor,
대전만년고등학교,대전광역시 서구 만년로 6,36.3673042,127.3728064,36.3672666784698,127.372951887217,0.014,match,
대전제일고등학교,대전광역시 서구 배재로46번길 77,36.3129887,127.3715197,36.3133742849195,127.372358859927,0.087,match,
대전성모여자고등학교,대전광역시 중구 대흥로 62,36.323592,127.4268869,36.3224646784501,127.41829654165,0.78,minor,
대전송촌고등학교,대전광역시 대덕구 선비마을로23번길 11,36.3643608,127.4456833,36.3634630057037,127.445927446149,0.102,match,
대전신일여자고등학교,대전광역시 중구 부사로 48,36.3091991,127.4361499,36.3086694104356,127.433405822322,0.253,match,
대전여자고등학교,대전광역시 동구 용운로1번길 28-37,36.3293455,127.4469456,36.3300002486211,127.446273615021,0.094,match,
대전여자상업고등학교,대전광역시 중구 대종로550번길 31,36.3335276,127.4219165,36.3338798995481,127.42167846413,0.045,match,
대전국제통상고등학교,대전광역시 중구 서문로 47,36.3125006,127.4083311,36.3138626054919,127.407536793239,0.167,match,
대전예술고등학교,대전광역시 유성구 월드컵대로308번길 33,36.3470747,127.3338222,36.3469540461616,127.333559972522,0.027,match,
대전외국어고등학교,대전광역시 서구 신갈마로 19,36.3395537,127.3675912,36.3365856584947,127.365624205253,0.374,minor,
대전전자디자인고등학교,대전광역시 유성구 대덕대로 939,36.422545,127.3828837,36.4129289544443,127.377016893308,1.191,mismatch,
대전중앙고등학교,대전광역시 중구 대종로 634,36.3018375,127.452074,36.3384107045318,127.415150806954,5.242,mismatch,
대전체육고등학교,대전광역시 유성구 원신흥로40번길 6,36.3377448,127.3423212,36.3365130897673,127.340653602635,0.203,match,
대전한빛고등학교,대전광역시 중구 대둔산로 119-37,36.2806104,127.3732713,36.2812445454735,127.373352854763,0.071,match,
동방고등학교,대전광역시 서구 계백로 1106,36.3096822,127.3714948,36.300337075228,127.346268143718,2.488,mismatch,
대전동신과학고등학교,대전광역시 동구 옥천로 423,36.3221715,127.4433005,36.3328583682761,127.474364250124,3.026,mismatch,
명석고등학교,대전광역시 동구 우암로 380,36.3525156,127.4546978,36.3529874575478,127.454245273207,0.066,match,
보문고등학교,대전광역시 동구 우암로 57,36.351656,127.4529031,36.3369769623322,127.424125673155,3.051,mismatch,
대전이문고등학교,대전광역시 대덕구 석봉로 15,36.4477547,127.4232558,36.4473121403739,127.423477878465,0.053,match,
서대전고등학교,대전광역시 서구 월평동로 60,36.3630797,127.3677322,36.3601335311867,127.369500564916,0.364,minor,
서대전여자고등학교,대전광역시 서구 배재로197번길 20,36.3257892,127.3676132,36.3276624536897,127.369582855709,0.273,match,
서일고등학교,대전광역시 서구 계백로828번길 30,36.2933319,127.3233404,36.2933263592364,127.323636237314,0.027,match,
서일여자고등학교,대전광역시 서구 구봉산북로 22,36.2937789,127.3237704,36.2942996137257,127.323545743107,0.061,match,
신탄진고등학교,대전광역시 대덕구 신탄진북로 14,36.4488304,127.4364178,36.449706677309,127.435950492726,0.106,match,
우송고등학교,대전광역시 동구 동대전로131번길 53,36.3345909,127.4439158,36.335628752102,127.442848859023,0.15,match,
유성고등학교,대전광역시 유성구 유성대로654번길 130,36.3503894,127.3384298,36.3492173781649,127.334774996888,0.352,minor,
유성생명과학고등학교,대전광역시 유성구 월드컵대로 270,36.3668421,127.3271467,36.3482395683882,127.328421641242,2.072,mismatch,
유성여자고등학교,대전광역시 유성구 은구비로138번길 70,36.3810914,127.3281254,36.3845624086165,127.328935430159,0.393,minor,
중일고등학교,대전 유성구 배울2로 68,36.4203652,127.3894297,36.4205249147892,127.388696484378,0.068,match,
청란여자고등학교,대전광역시 중구 보문로95번길 40,36.3126625,127.4302442,36.3107377355938,127.429527699493,0.223,match,
충남고등학교,대전광역시 서구 문정로 171,36.3496859,127.3943947,36.3499795050131,127.394272155447,0.034,match,
충남기계공업고등학교,대전광역시 중구 산성로 154,36.3071297,127.3922696,36.3119942087967,127.40357307303,1.148,mismatch,
충남여자고등학교,대전광역시 중구 선화로43번길 77,36.3276329,127.4130411,36.3297463634695,127.411287714097,0.283,match,
한밭고등학교,대전광역시 서구 신갈마로141번길 58,36.3461541,127.3663377,36.3464968491078,127.364398593111,0.178,match,
호수돈여자고등학교,대전광역시 중구 선화로 50,36.326765,127.4144756,36.3267722663264,127.414245768689,0.021,match,
대전반석고등학교,대전광역시 유성구 지족로 332,36.3867596,127.3135661,36.3869187814534,127.313524211805,0.018,match,
대전구봉고등학교,대전광역시 서구 관저서로 36,36.2954668,127.3309212,36.2955749269676,127.331002598608,0.014,match,
대전전민고등학교,대전광역시 유성구 전민로 63,36.3963938,127.3986549,36.398336832282,127.398332734458,0.218,match,
대전괴정고등학교,대전광역시 서구 가장로 15,36.3369351,127.3820134,36.3404030561824,127.378843134591,0.479,minor,
대전지족고등학교,대전광역시 유성구 노은서로 202,36.3638089,127.3142978,36.3779840347806,127.316083858007,1.584,mismatch,
대전용산고등학교,대전광역시 유성구 용산2로 2-16,36.4209002,127.3962936,36.421007774652,127.395905413535,0.037,match,
대전가오고등학교,대전광역시 동구 신기로 71,36.3113568,127.4576722,36.3106601970593,127.454472396733,0.297,match,
대전복수고등학교,대전광역시 서구 혜천로 66,36.3060131,127.370573,36.3037716130431,127.373585678549,0.367,minor,
대전도안고등학교,대전광역시 유성구 원신흥남로 51,36.33706,127.3382132,36.3369221288496,127.33731952862,0.082,match,
문수고등학교,울산광역시 남구 울밀로 2905,35.5556565,129.2634781,35.5556576123073,129.265323832218,0.167,match,
남창고등학교,울산광역시 울주군 온양읍 태화7길 43-16,35.4151857,129.2796564,35.4147781182275,129.277212613147,0.226,match,
울산동천고등학교,울산광역시 북구 고래로 54,35.6307437,129.3419112,35.6327798821215,129.338851290874,0.357,minor,
대송고등학교,울산광역시 동구 봉수로 210,35.5056974,129.4193008,35.5056934339129,129.419345385928,0.004,match,
무룡고등학교,울산광역시 북구 사청1길 30,35.5866879,129.3613506,35.5866509285564,129.361612671257,0.024,match,
방어진고등학교,울산광역시 동구 학문로 50,35.5042429,129.4230099,35.5046206933814,129.422991399889,0.042,match,
울산삼일고등학교,울산광역시 남구 두왕로190번길 59,35.5187081,129.3145567,35.5159310449232,129.316772024196,0.368,minor,
성광여자고등학교,울산광역시 남구 남부순환도로 97,35.5152611,129.3142662,35.5431457378798,129.265848882847,5.368,mismatch,
성신고등학교,울산광역시 중구 성신고교길 26,35.5619273,129.3282328,35.5628058092608,129.327792904061,0.105,match,
신정고등학교,울산광역시 남구 문수로 458,35.5331965,129.3023594,35.5329382489622,129.301990581426,0.044,match,
우신고등학교,울산광역시 남구 대학로1번길 29,35.5382916,129.2507925,35.537951049099,129.250414272672,0.051,match,
울산기술공업고등학교,울산광역시 울주군 온산읍 덕망로 54,35.4417181,129.3039548,35.438903488912,129.308028099223,0.484,minor,
울산경의고등학교,울산광역시 울주군 상북면 상북로 248,35.591186,129.0891469,35.5885203178571,129.093274779935,0.477,minor,
울산고등학교,울산광역시 중구 도화골15길 15,35.5633006,129.3312865,35.5631479704026,129.330867774664,0.042,match,
울산공업고등학교,울산광역시 남구 중앙로204번길 49,35.5422797,129.3174631,35.5418292500329,129.315973881492,0.144,match,
울산생활과학고등학교,울산광역시 동구 학문로 70,35.5044943,129.4215558,35.5042368075827,129.421010743389,0.057,match,
울산여자고등학교,울산광역시 남구 삼산로9번길 16,35.5332966,129.3092956,35.5355867023923,129.309595821797,0.256,match,
울산여자상업고등학교,울산광역시 남구 두왕로 304,35.5266494,129.3104488,35.5290341630246,129.309887318337,0.27,match,
울산예술고등학교,울산광역시 울주군 웅촌면 웅촌로 621-6,35.4846911,129.2173046,35.4818641003249,129.216273775095,0.328,minor,
울산제일고등학교,울산광역시 남구 남부순환도로 107,35.5152611,129.3142662,35.541704301564,129.267836747462,5.128,mismatch,
울산중앙고등학교,울산광역시 중구 난곡로 33,35.5529058,129.2851159,35.556094743725,129.284449574972,0.36,minor,
울산가온고등학교,울산광역시 중구 내황2길 33,35.5531075,129.3449595,35.5545841596542,129.344176055856,0.179,match,
울산에너지고등학교,울산광역시 북구 화동2길 28,35.5894625,129.368415,35.5900355976062,129.369720889131,0.134,match,
학성고등학교,울산광역시 남구 문수로 436,35.5331965,129.3023594,35.5316043971898,129.300352883488,0.254,match,
학성여자고등학교,울산광역시 중구 화합로 466,35.566628,129.3348916,35.5666323527702,129.334944631328,0.005,match,
현대고등학교,울산광역시 동구 봉수로 455,35.4935565,129.4136365,35.5252196071778,129.421668599861,3.595,mismatch,
현대공업고등학교,울산광역시 동구 미포로 122,35.537215,129.43144,35.5386683700673,129.430888661807,0.169,match,
현대청운고등학교,울산광역시 동구 방어진순환도로 1077,35.535716,129.4301564,35.5365585370624,129.428097414253,0.209,match,
화암고등학교,울산광역시 동구 화암7길 55,35.4783529,129.4134624,35.4769809986144,129.409584986067,0.383,minor,
울산애니원고등학교,울산광역시 중구 성안11길 21,35.5777711,129.321348,35.578717578477,129.321113348039,0.107,match,
함월고등학교,울산광역시 중구 종가3길 25,35.5607347,129.2967276,35.5614464511021,129.297090725078,0.086,match,
다운고등학교,울산광역시 중구 다운로 180,35.5664156,129.2702987,35.5664888229178,129.27060962803,0.029,match,
울산과학고등학교,울산광역시 울주군 상북면 도동신리로,35.591443,129.093649,35.5965761500301,129.099705228232,0.791,minor,
남목고등학교,울산광역시 동구 방어진순환도로 1200,35.535716,129.4301564,35.5380104249407,129.41875170715,1.063,mismatch,
삼산고등학교,울산광역시 남구 돋질로339번길 13,35.545689,129.3422733,35.5453242005188,129.340856547773,0.134,match,
대현고등학교,울산광역시 남구 수암로 164,35.5320138,129.3084499,35.5261401471467,129.324338927099,1.579,mismatch,
신선여자고등학교,울산광역시 남구 수암로178번길 14,35.5260945,129.3267601,35.5250618516762,129.325945722297,0.136,match,
무거고등학교,울산광역시 남구 대학로1번길 17-28,35.536549,129.2516373,35.5362547813264,129.250418684678,0.115,match,
문현고등학교,울산광역시 동구 화잠7길 25,35.4828464,129.4104452,35.4823956491806,129.409180439085,0.125,match,
호계고등학교,울산광역시 북구 동대11길 31,35.6302644,129.35573,35.6305407724359,129.355371397941,0.045,match,
범서고등학교,울산광역시 울주군 범서읍 대리로 69,35.5638324,129.2487677,35.5697909247159,129.249324677913,0.664,minor,
달천고등학교,울산광역시 북구 달천철장길 23,35.6317737,129.3287773,35.6318782968714,129.32875472954,0.012,match,
울산외국어고등학교,울산광역시 북구 중산동로 32-46,35.6584783,129.3542612,35.6588124221124,129.355083353889,0.083,match,
울산강남고등학교,울산광역시 남구 팔등로 115,35.5476591,129.3217312,35.5469980885806,129.318734685227,0.281,match,
화봉고등학교,울산광역시 북구 화동로 47,35.5935544,129.3698353,35.5952995328702,129.370021405871,0.195,match,
매곡고등학교,울산광역시 북구 매산로 45,35.6445911,129.3592927,35.6448139451953,129.359528696398,0.033,match,
천상고등학교,울산광역시 울주군 범서읍 당앞로 96,35.5701992,129.2266437,35.5656463735796,129.222112145286,0.651,minor,
울산스포츠과학고등학교,울산광역시 북구 산음3길 16,35.6234174,129.4326421,35.6237505884655,129.431301377001,0.127,match,
약사고등학교,울산광역시 중구 종가로 560,35.5735171,129.3359868,35.5735453599089,129.335998411313,0.003,match,
온산고등학교,울산광역시 울주군 온산읍 명봉거남로 76,35.4505742,129.3177505,35.4390149028479,129.317936220991,1.285,mismatch,
강동고등학교,울산광역시 북구 화암4길 8,35.6337572,129.4345171,35.6327591496505,129.435201979743,0.127,match,
세종대성고등학교,세종특별자치시  다솜로 22,36.4965689,127.2557369,36.4971332747623,127.254676040658,0.114,match,
세종여자고등학교,세종특별자치시  조치원읍 봉산로 16,36.6070946,127.2874378,36.6079087062266,127.287907560703,0.1,match,
한솔고등학교,세종특별자치시  누리로 34,36.4784853,127.25279,36.478425979579,127.252804760003,0.007,match,
세종미래고등학교,세종특별자치시  부강면 문곡달미길  6,36.5247704,127.386707,36.5267881565509,127.381892559845,0.485,minor,
세종고등학교,세종특별자치시  조치원읍 조치원중고길 10,36.6106186,127.2994717,36.6113262952373,127.298986959584,0.09,match,
아름고등학교,세종특별자치시  달빛1로 151,36.5129761,127.2451802,36.5130098376947,127.245250101924,0.007,match,
도담고등학교,세종특별자치시  보듬4로 41,36.5138546,127.2669616,36.5142071562906,127.263444559783,0.317,minor,
세종국제고등학교,세종특별자치시  달빛1로 251,36.5215686,127.2468733,36.5217937137029,127.247139573034,0.035,match,
종촌고등학교,세종특별자치시  달빛1로 60,36.5044633,127.245906,36.5046306845716,127.245837828462,0.02,match,
고운고등학교,세종특별자치시  마음안로 93,36.5127874,127.2334209,36.5102290381123,127.233077949258,0.286,match,
세종예술고등학교,세종특별자치시  중앙공원서로 60,36.4904327,127.269207,36.4905276705166,127.269103710319,0.014,match,
세종과학예술영재학교,세종특별자치시  달빛1로 265,36.5227556,127.2487042,36.5228984394094,127.249130805954,0.041,match,
양지고등학교,세종특별자치시  갈매로 518,36.5095213,127.2688868,36.5095768597276,127.269291537392,0.037,match,
두루고등학교,세종특별자치시  마음안1로 53,36.5181541,127.2297755,36.5162699908084,127.227394206755,0.299,match,
소담고등학교,세종특별자치시,36.4799999,127.289,36.4800649113757,127.289195324698,0.019,match,
보람고등학교,세종특별자치시  한누리대로 2176,36.4775597,127.2841624,36.4776410737343,127.284089974194,0.011,match,
새롬고등학교,세종특별자치시  새롬서로 68,36.4861791,127.2491117,36.4865929854467,127.249125659458,0.046,match,
반곡고등학교,세종특별자치시  시청대로 566,36.4964145,127.3168448,36.4967469566018,127.316627440081,0.042,match,
다정고등학교,세종특별자치시  다정남로 15,36.4934243,127.2421056,36.4934915056656,127.242042190907,0.009,match,
세종장영실고등학교,세종특별자치시  금남면 금남구즉로 196,36.4770698,127.2996551,36.4775850770721,127.299545051452,0.058,match,
해밀고등학교,세종특별자치시 해밀2로 36,36.5269238,127.2702813,36.527473133734,127.270280871511,0.061,match,
세종캠퍼스고등학교,세종특별자치시 산울3로 140,36.5338082,127.2622858,36.534824377915,127.26521528841,0.285,match,
가평고등학교,경기도 가평군 가평읍 호반로 2601,37.8180466,127.5129206,37.8182842898606,127.513085528699,0.03,match,
경기과학고등학교,경기도 수원시 장안구 수일로 135,37.3112513,126.9938408,37.308795986874,127.006408542503,1.145,mismatch,
경기체육고등학교,경기도 수원시 장안구 상률로 106,37.305825,126.9781573,37.3040138873756,126.978691806414,0.207,match,
경민고등학교,경기도 의정부시 서부로 545,37.7460695,127.0273285,37.746124313263,127.025131506194,0.193,match,
경민비즈니스고등학교,경기도 의정부시 서부로 545,37.7460695,127.0273285,37.746124313263,127.025131506194,0.193,match,
경민IT고등학교,경기도 의정부시 서부로 545,37.7460695,127.0273285,37.746124313263,127.025131506194,0.193,match,
경안고등학교,경기도 안산시 단원구 당곡로 93,37.321189,126.8336427,37.325190934122,126.834927209555,0.459,minor,
경일고등학교,경기도 안산시 단원구 석수로 131,37.3475831,126.8051016,37.3479491508622,126.804970582527,0.042,match,
계남고등학교,경기도 부천시 원미구 부흥로 261,37.4960909,126.7717223,37.4964369790744,126.772530512305,0.081,match,
계원예술고등학교,경기도 성남시 분당구 불정로 100,37.3590458,127.1160685,37.3583619161056,127.115506089721,0.091,match,
고양외국어고등학교,경기도 고양시 덕양구 통일로 820,37.69063,126.860092,37.6905275269194,126.859278712864,0.072,match,
고양고등학교,경기도 고양시 덕양구 삼송로 171,37.6530899,126.8922871,37.6542209546964,126.890839614115,0.179,match,
고잔고등학교,경기도 안산시 단원구 광덕2로 222,37.3085839,126.8352624,37.3087874891433,126.835345815819,0.024,match,
과천고등학교,경기도 과천시 꿈보람길 26,37.4305459,126.9974359,37.4308558651016,126.997030288572,0.05,match,
과천여자고등학교,경기도 과천시 희망길 36,37.4327989,126.9884786,37.4326435517116,126.988107313228,0.037,match,
과천외국어고등학교,경기도 과천시 희망길 36,37.4327989,126.9884786,37.4326435517116,126.988107313228,0.037,match,
과천중앙고등학교,경기도 과천시 교육원로 17,37.4227599,126.9867325,37.4229715114057,126.986595560751,0.026,match,
경기게임마이스터고등학교,경기도 안양시 동안구 학의로 70,37.3989574,126.949394,37.3979108099943,126.947468252173,0.206,match,
관양고등학교,경기도 안양시 동안구 일동로 115,37.4085018,126.9601059,37.4088142308233,126.960117747105,0.035,match,
의정부광동고등학교,경기도 의정부시 서부로 691,37.7460695,127.0273285,37.7555436632056,127.036201014586,1.311,mismatch,
광명고등학교,경기도 광명시 오리로876번길 17,37.4785739,126.8660653,37.478571169867,126.865989571814,0.007,match,
광명북고등학교,경기도 광명시 시청로 127,37.4878527,126.8671711,37.4879266389187,126.8679386066,0.068,match,
곤지암고등학교,경기도 광주시 곤지암읍 곤지암로 82,37.3499602,127.3384845,37.3485630761216,127.337609148242,0.174,match,
광주중앙고등학교,경기도 광주시 역동로63번길 1,37.4006694,127.2567882,37.4034728878347,127.257944544986,0.328,minor,
구리고등학교,경기도 구리시 장자대로 89,37.5885105,127.1404395,37.5885709330678,127.140093882394,0.031,match,
구리여자고등학교,경기도 구리시 벌말로 168,37.5918637,127.1513075,37.5914306625287,127.152048504701,0.081,match,
군포고등학교,경기도 군포시 오금로 118,37.3538005,126.9339727,37.3576039286502,126.940449081045,0.712,minor,
군포e비즈니스고등학교,경기도 군포시 수리산로 153,37.3628939,126.9187234,37.3630530787143,126.918542164562,0.024,match,
권선고등학교,경기도 수원시 권선구 세권로 276,37.2514418,127.0389796,37.2527819363773,127.033365065763,0.519,minor,
근명고등학교,경기도 안양시 만안구 삼덕로 49,37.3920536,126.918859,37.3935417786908,126.920014194594,0.194,match,
금곡고등학교,경기도 남양주시 경춘로992번길 10,37.6337405,127.2124139,37.6330915887098,127.212948673507,0.086,match,
김포고등학교,경기도 김포시 봉화로 37-15,37.6174621,126.7166897,37.6183997786843,126.713008998928,0.341,minor,
김포과학기술고등학교,경기도 김포시 봉화로 69,37.6174621,126.7166897,37.6207097801149,126.710781010625,0.633,minor,
낙생고등학교,경기도 성남시 분당구 대왕판교로 477,37.3868718,127.1010921,37.3861046866025,127.100374788286,0.106,match,
한국외식과학고등학교,경기도 양주시 남면 개나리18길 1,37.8974393,126.9799549,37.8971913261868,126.979894250096,0.028,match,
남한고등학교,경기도 하남시 신평로 25,37.5363897,127.2031734,37.5360326229314,127.202819017585,0.051,match,
대부고등학교,경기도 안산시 단원구 대부중앙로 3,37.2479141,126.5783147,37.2477622725709,126.579061819864,0.068,match,
대신고등학교,경기도 여주시 대신면 여양로 1196,37.3747586,127.5879799,37.3635348209376,127.608115284525,2.173,mismatch,
덕소고등학교,경기도 남양주시 와부읍 덕소로 194,37.5890334,127.2061087,37.5793528256648,127.216535852641,1.415,mismatch,
덕정고등학교,경기도 양주시 화합로 1488,37.8371303,127.0716672,37.8377774774036,127.071360267571,0.077,match,
동두천중앙고등학교,경기도 동두천시 평화로 2280,37.946144,127.0610733,37.8916510420522,127.058102442745,6.065,mismatch,
동안고등학교,경기도 안양시 동안구 부림로 71,37.3900394,126.9660935,37.390356692996,126.966106438581,0.035,match,
동우여자고등학교,경기도 수원시 장안구 장안로 426-1,37.2879104,127.0054188,37.319873609618,126.982389265377,4.096,mismatch,
동원동우고등학교,경기도 수원시 장안구 장안로 426-1,37.2879104,127.0054188,37.319873609618,126.982389265377,4.096,mismatch,
동일공업고등학교,경기도 평택시 중앙로 315,36.9918354,127.1178242,36.9923258144998,127.117983320546,0.056,match,
동화고등학교,경기도 남양주시 경춘로 434,37.6073586,127.1623549,37.6079309897008,127.16190370304,0.075,match,
마장고등학교,경기도 이천시 마장면 마도로 23,37.2777954,127.3486355,37.2581012123803,127.351317330723,2.203,mismatch,
매향여자정보고등학교,경기도 수원시 팔달구 수원천로 350,37.2829062,127.0178671,37.2845735546807,127.018621688707,0.197,match,
문산고등학교,경기도 파주시 문산읍 당동1로 22,37.8619487,126.7766314,37.8629655179087,126.775962360135,0.127,match,
문산수억고등학교,경기도 파주시 파주읍 우계로 357,37.8350047,126.8168796,37.8520333515661,126.802517113199,2.275,mismatch,
문산제일고등학교,경기도 파주시 평화로 190,37.7850994,126.6904731,37.7726039859556,126.762887305161,6.514,mismatch,
발안바이오과학고등학교,경기도 화성시 만세구 향남읍 발안로 71,37.1321743,126.9337187,37.1329276150071,126.91699165726,1.485,mismatch,
백마고등학교,경기도 고양시 일산동구 백석로 155,37.6517227,126.7943746,37.6519823295188,126.794012098875,0.043,match,
백석고등학교,경기도 고양시 일산동구 강촌로 115,37.6539201,126.7926634,37.652906300665,126.786918944084,0.518,minor,
백신고등학교,경기도 고양시 일산동구 백석로 8,37.6423923,126.781642,37.6424890685772,126.782286198995,0.058,match,
백암고등학교,경기도 용인시 처인구 백암면 백원로 519-9,37.1639926,127.369664,37.1649680002388,127.368572795135,0.145,match,
백영고등학교,경기도 안양시 동안구 관평로 94,37.3861147,126.96495,37.3864580007221,126.964988941883,0.038,match,
한빛누리고등학교,경기도 동두천시 동광로 124,37.9113172,127.0613001,37.9119789193692,127.061034366111,0.077,match,
부명고등학교,경기도 부천시 석천로 127,37.4990747,126.7613486,37.499067501361,126.761673438639,0.029,match,
경기국제통상고등학교,경기도 부천시 원미구 석천로 141,37.5004748,126.7613835,37.5004128378206,126.760849712714,0.048,match,
상동고등학교,경기도 부천시 원미구 상이로 22,37.491001,126.7448863,37.49061499694,126.745058115411,0.046,match,
부천고등학교,경기도 부천시 경인로92번길 70,37.4799122,126.7663117,37.4799131660192,126.766301647016,0.001,match,
부천공업고등학교,경기도 부천시 경인로120번길 82,37.4809812,126.767616,37.4813911120038,126.766815430239,0.084,match,
부천여자고등학교,경기도 부천시 원미구 석천로16번길 37,37.4890155,126.7622439,37.4898726295335,126.761749693847,0.105,match,
부천정보산업고등학교,경기도 부천시 신상로 94,37.496599,126.7488695,37.4963639797091,126.749410281994,0.054,match,
부흥고등학교,경기도 안양시 동안구 달안로 15,37.3930255,126.9447074,37.3933066406004,126.944622150621,0.032,match,
분당대진고등학교,경기도 성남시 분당구 분당로 271,37.3662001,127.1427392,37.36941233406,127.138147511331,0.541,minor,
분당경영고등학교,경기도 성남시 분당구 금곡로 289,37.3502874,127.1200719,37.3550258133701,127.109687859068,1.058,mismatch,
분당중앙고등학교,경기도 성남시 분당구 불정로 174,37.3603967,127.1239819,37.3606471247268,127.124625790099,0.063,match,
불곡고등학교,경기도 성남시 분당구 금곡로 149,37.3502874,127.1200719,37.3484803302395,127.118523662298,0.243,match,
비봉고등학교,경기도 화성시 비봉면 양노로109번길 5,37.2407586,126.874093,37.2372451941644,126.872693533582,0.41,minor,
사우고등학교,경기도 김포시 김포대로 824,37.6192157,126.7236233,37.6192188251713,126.723598257341,0.002,match,
산본고등학교,경기도 군포시 산본로 451-12,37.3605586,126.9331842,37.3705257666015,126.925412097799,1.304,mismatch,
삼광고등학교,경기도 파주시 적성면 청송로 701,37.949244,126.9074877,37.9455777258231,126.885509510766,1.97,mismatch,
삼괴고등학교,경기도 화성시 만세구 우정읍 장안로 35,37.0884026,126.8199123,37.0898178373189,126.822287928012,0.263,match,
서울삼육고등학교,경기도 구리시 아차산로487번길 70,37.5953182,127.1248553,37.5952268017404,127.124523278552,0.031,match,
서해고등학교,경기도 시흥시 정왕신길로 13,37.337353,126.7599591,37.3605929327388,126.723907523525,4.103,mismatch,
서현고등학교,경기도 성남시 분당구 분당로 87,37.3662001,127.1427392,37.3822220478195,127.124059549433,2.429,mismatch,
성남테크노과학고등학교,경기도 성남시 중원구 둔촌대로258번길 7,37.4279456,127.147689,37.4276400391844,127.147440093612,0.04,match,
분당아람고등학교,경기도 성남시 분당구 장미로 153,37.4134102,127.1331511,37.4137782213641,127.138673786049,0.489,minor,
성보경영고등학교,경기도 성남시 수정구 논골로 82,37.4580037,127.1587224,37.4618466413048,127.158526499046,0.428,minor,
성안고등학교,경기도 안산시 상록구 용신로 170,37.301533,126.8674662,37.3027209378571,126.842786264298,2.187,mismatch,
성일고등학교,경기도 성남시 중원구 시민로77번길 10,37.4347505,127.144913,37.4348858854339,127.145576726447,0.061,match,
동광고등학교,경기도 성남시 중원구 원터로 84,37.4337605,127.1430282,37.4346610960897,127.143427877431,0.106,match,
성호고등학교,경기도 오산시 동부대로436번길 46,37.1390743,127.0824466,37.1391886437746,127.081313310221,0.101,match,
세원고등학교,경기도 고양시 일산동구 숲속마을로 202,37.670733,126.8030473,37.6714693403626,126.803347635738,0.086,match,
소하고등학교,경기도 광명시 소하일로 21,37.4470367,126.8875085,37.4472460606846,126.887582140338,0.024,match,
송림고등학교,경기도 성남시 분당구 이매로 100,37.392157,127.1317534,37.3919127231522,127.131809772912,0.028,match,
송탄고등학교,경기도 평택시 고덕국제1로 176,37.0430312,127.0392602,37.0527318585844,127.040068277354,1.081,mismatch,
라온고등학교,경기도 평택시 경기대로1376번길 38-6,37.0694387,127.0669465,37.06940562121,127.066952239017,0.004,match,
송현고등학교,경기도 의정부시 용민로 159,37.7548511,127.1089777,37.7439207507851,127.090831646443,2.006,mismatch,
수리고등학교,경기도 군포시 수리산로 39,37.365178,126.9245478,37.3552620138548,126.91977118324,1.181,mismatch,
홍익디자인고등학교,경기도 화성시 효행구 효행로 387,37.2343375,126.9679258,37.2167979841834,126.979628726327,2.208,mismatch,
수원고등학교,경기도 수원시 팔달구 정조로 666-10,37.2671624,127.0176301,37.2671336518696,127.017414678289,0.019,match,
수원공업고등학교,경기도 수원시 팔달구 세지로 254,37.2741704,127.0255459,37.2742667467272,127.024521555989,0.091,match,
수원농생명과학고등학교,경기도 수원시 장안구 광교산로 13,37.3098685,127.0263801,37.2951590792692,127.019507269947,1.745,mismatch,
수원여자고등학교,경기도 수원시 팔달구 고등로59번길 72,37.2762237,127.0043371,37.2768359099875,127.004355045767,0.068,match,
수원정보과학고등학교,경기도 수원시 영통구 동수원로551번길 16,37.2761834,127.0497721,37.2762515255438,127.049650000243,0.013,match,
수지고등학교,경기도 용인시 수지구 수풍로 73,37.3307192,127.0920536,37.331496964114,127.092488388516,0.095,match,
수택고등학교,경기도 구리시 검배로 145,37.593421,127.1566451,37.594879069884,127.154580841963,0.244,match,
시온고등학교,경기도 부천시 은성로 172-20,37.4702984,126.8059998,37.4714813575595,126.805104975356,0.153,match,
경기스마트고등학교,경기도 시흥시 정왕천로 404,37.3419156,126.7487969,37.3432672148453,126.752629411521,0.371,minor,
신성고등학교,경기도 안양시 만안구 소곡로 93,37.3846295,126.9204612,37.3841550395111,126.918601319576,0.173,match,
신일비즈니스고등학교,경기도 고양시 일산서구 킨텍스로 452,37.6830879,126.7617077,37.682855203799,126.762267820731,0.056,match,
신한고등학교,경기도 평택시 신한1길 26,36.994472,127.1032921,36.9942725099665,127.102877315419,0.043,match,
신흥고등학교,경기도 동두천시 신천로 159,37.9340433,127.047447,37.9310670629669,127.047814120251,0.333,minor,
심석고등학교,경기도 남양주시 화도읍 마석로 62,37.6594945,127.3043168,37.6560344532752,127.306885363211,0.446,minor,
심원고등학교,경기도 부천시 계남로 284,37.5102121,126.7487206,37.5048568460541,126.778928296799,2.73,mismatch,
안법고등학교,경기도 안성시 명륜길 66,37.0113336,127.2734857,37.0132890165736,127.273288636896,0.218,match,
안산강서고등학교,경기도 안산시 단원구 삼일로 367,37.3346822,126.8181754,37.3347947075314,126.817943095352,0.024,match,
안산국제비즈니스고등학교,경기도 안산시 상록구 수인로 1981,37.3773613,126.8712809,37.3609470356859,126.874144218911,1.843,mismatch,
안산동산고등학교,경기도 안산시 상록구 충장로 56,37.3283538,126.8501951,37.2868673648874,126.858559094053,4.672,mismatch,
안성고등학교,경기도 안성시 금산길 57,37.0125845,127.2710671,37.0140416923352,127.271361910374,0.164,match,
두원공업고등학교,경기도 안성시 미양면 미양로 727,36.9946128,127.2435928,36.9967028788343,127.241799221431,0.282,match,
안성여자고등학교,경기도 안성시 남파로 73-10,37.0158703,127.2563041,37.0180393321511,127.257277718052,0.256,match,
가온고등학교,경기도 안성시 샛터길 46,36.9890487,127.2759272,36.9884925358006,127.275875769907,0.062,match,
안양고등학교,경기도 안양시 만안구 삼봉로 46,37.4006188,126.9011384,37.4004889815641,126.901359985879,0.024,match,
안양공업고등학교,경기도 안양시 만안구 양화로28번길 69,37.3991348,126.9150793,37.3995639195258,126.914329021324,0.082,match,
안양여자고등학교,경기도 안양시 만안구 안양로 357,37.4034806,126.9164417,37.403532992508,126.916322264164,0.012,match,
안양문화고등학교,경기도 안양시 만안구 양화로37번길 36,37.3958474,126.9099369,37.3957610400926,126.9086344228,0.115,match,
안양예술고등학교,경기도 안양시 만안구 양화로25번길 40,37.395533,126.9114756,37.3958070369674,126.911416806572,0.031,match,
안양외국어고등학교,경기도 안양시 만안구 양화로37번길 36,37.3958474,126.9099369,37.3957610400926,126.9086344228,0.115,match,
경기물류고등학교,경기도 평택시 안중읍 안현로 403,36.9867468,126.9297383,36.9869248305206,126.929636224502,0.022,match,
안중고등학교,경기도 평택시 안중읍 안중믿음길 32,36.9870996,126.9233607,36.9869916809648,126.923222480107,0.017,match,
야탑고등학교,경기도 성남시 분당구 판교로 738,37.4051627,127.1493982,37.4037683255112,127.153564494099,0.399,minor,
양곡고등학교,경기도 김포시 양촌읍 양곡4로 138,37.6591407,126.6252578,37.6596394442291,126.625143691369,0.056,match,
양동고등학교,경기도 양평군 양동면 학둔지윗길 47-7,37.4284605,127.749918,37.4216834802133,127.755652002015,0.908,minor,
양명고등학교,경기도 안양시 만안구 경수대로1001번길 184,37.4085581,126.9204779,37.4086403696387,126.92001666949,0.042,match,
양명여자고등학교,경기도 안양시 만안구 경수대로1001번길 150,37.4074402,126.9217985,37.4069762729152,126.922172500806,0.061,match,
양서고등학교,경기도 양평군 양서면 상촌길 31-12,37.5480619,127.327922,37.5480676574525,127.327956379653,0.003,match,
양영디지털고등학교,경기도 성남시 분당구 불정로386번길 35,37.3735999,127.1405162,37.3740175339414,127.140011244187,0.064,match,
양일고등학교,경기도 양평군 양평읍 관문2길 9,37.4947002,127.4942117,37.4944033786435,127.493494406886,0.071,match,
양지고등학교,경기도 안산시 단원구 화정천동로 50,37.3090065,126.8219949,37.3091875469614,126.822084716848,0.022,match,
양평고등학교,경기도 양평군 양평읍 양근로 260,37.4856649,127.4960514,37.4854259853451,127.49603802779,0.027,match,
여주고등학교,경기도 여주시 세종로 254-58,37.2647927,127.6395406,37.2719100528925,127.632684809815,0.997,minor,
세종고등학교,경기도 여주시 청심로 221,37.2980141,127.6362066,37.2955207980732,127.646286515014,0.934,minor,
연천고등학교,경기도 연천군 연천읍 연천로336번길 13,38.1082556,127.0767463,38.108223907138,127.076673114788,0.007,match,
영덕고등학교,경기도 수원시 영통구 매영로 334,37.2620908,127.0635065,37.2524178841039,127.068439296069,1.161,mismatch,
영생고등학교,경기도 수원시 장안구 서부로2198번길 22,37.3051987,126.9744889,37.3047188702022,126.974223849814,0.058,match,
동국대학교사범대학부속영석고등학교,경기도 의정부시 시민로 363,37.7381138,127.0356954,37.7358713333453,127.074910358813,3.457,mismatch,
영신여자고등학교,경기도 수원시 권선구 삼천병마로1566번길 30,37.2424903,126.9655403,37.2419209678359,126.967113299858,0.153,match,
오산고등학교,경기도 오산시 청학로 43,37.1529977,127.0607721,37.1543059093432,127.062605619139,0.218,match,
용문고등학교,경기도 양평군 용문면 용문로 437,37.5059965,127.626995,37.4918733720804,127.59881542216,2.94,mismatch,
용인고등학교,경기도 용인시 처인구 금학로253번길 20-21,37.2391354,127.1929898,37.2405707192481,127.193087259605,0.16,match,
원곡고등학교,경기도 안산시 단원구 화랑로 15,37.3221402,126.8118931,37.3328606203858,126.798684325553,1.669,mismatch,
